$GNGGA,162337.00,4529.82510,N,00911.08629,E,1,07,3.00,132.5,M,47.1,M,,*4B
$GNGGA,162338.00,4529.82499,N,00911.08651,E,1,07,3.00,132.6,M,47.1,M,,*48
$GNGGA,162339.00,4529.82486,N,00911.08677,E,1,07,3.00,132.8,M,47.1,M,,*4D
$GNGGA,162340.00,4529.82480,N,00911.08692,E,1,07,3.00,132.8,M,47.1,M,,*4E
$GNGGA,162341.00,4529.82467,N,00911.08715,E,1,08,3.00,133.0,M,47.1,M,,*4E
$GNGGA,162342.00,4529.82459,N,00911.08731,E,1,08,3.00,133.1,M,47.1,M,,*47
$GNGGA,162343.00,4529.82455,N,00911.08739,E,1,08,3.00,133.1,M,47.1,M,,*42
$GNGGA,162344.00,4529.82445,N,00911.08757,E,1,08,2.26,133.2,M,47.1,M,,*4A
$GNGGA,162345.00,4529.82440,N,00911.08764,E,1,08,2.26,133.2,M,47.1,M,,*4E
$GNGGA,162346.00,4529.82437,N,00911.08770,E,1,07,3.00,133.2,M,47.1,M,,*42
$GNGGA,162347.00,4529.82435,N,00911.08775,E,1,08,2.26,133.2,M,47.1,M,,*4E
$GNGGA,162348.00,4529.82435,N,00911.08774,E,1,08,2.26,133.1,M,47.1,M,,*43
$GNGGA,162349.00,4529.82436,N,00911.08774,E,1,08,2.26,133.1,M,47.1,M,,*41
$GNGGA,162350.00,4529.82434,N,00911.08774,E,1,08,2.26,133.1,M,47.1,M,,*4B
$GNGGA,162351.00,4529.82435,N,00911.08771,E,1,08,2.26,133.1,M,47.1,M,,*4E
$GNGGA,162352.00,4529.82437,N,00911.08767,E,1,08,2.26,133.1,M,47.1,M,,*48
$GNGGA,162353.00,4529.82437,N,00911.08764,E,1,08,2.26,133.1,M,47.1,M,,*4A
$GNGGA,162354.00,4529.82439,N,00911.08758,E,1,08,2.26,133.1,M,47.1,M,,*4C
$GNGGA,162355.00,4529.82442,N,00911.08752,E,1,07,3.00,133.1,M,47.1,M,,*41
$GNGGA,162356.00,4529.82446,N,00911.08743,E,1,07,3.00,133.0,M,47.1,M,,*47
$GNGGA,162357.00,4529.82450,N,00911.08733,E,1,07,3.00,133.0,M,47.1,M,,*46
$GNGGA,162358.00,4529.82452,N,00911.08726,E,1,07,3.00,133.0,M,47.1,M,,*4F
$GNGGA,162359.00,4529.82454,N,00911.08719,E,1,07,3.01,133.0,M,47.1,M,,*45
$GNGGA,162400.00,4529.82460,N,00911.08708,E,1,07,3.01,133.0,M,47.1,M,,*49
$GNGGA,162401.00,4529.82469,N,00911.08694,E,1,07,3.01,132.9,M,47.1,M,,*4D
$GNGGA,162402.00,4529.82476,N,00911.08680,E,1,07,3.01,132.9,M,47.1,M,,*45
$GNGGA,162403.00,4529.82481,N,00911.08671,E,1,07,3.01,132.9,M,47.1,M,,*42
$GNGGA,162404.00,4529.82490,N,00911.08657,E,1,07,3.01,132.9,M,47.1,M,,*41
$GNGGA,162405.00,4529.82498,N,00911.08642,E,1,07,3.01,132.8,M,47.1,M,,*4D
$GNGGA,162406.00,4529.82507,N,00911.08628,E,1,07,3.01,132.8,M,47.1,M,,*45
$GNGGA,162407.00,4529.82517,N,00911.08614,E,1,07,3.01,132.8,M,47.1,M,,*4A
$GNGGA,162408.00,4529.82523,N,00911.08601,E,1,07,3.01,132.8,M,47.1,M,,*46
$GNGGA,162409.00,4529.82531,N,00911.08587,E,1,07,3.01,132.8,M,47.1,M,,*49
$GNGGA,162410.00,4529.82535,N,00911.08578,E,1,07,3.01,132.8,M,47.1,M,,*45
$GNGGA,162411.00,4529.82542,N,00911.08565,E,1,08,3.01,132.7,M,47.1,M,,*48
$GNGGA,162412.00,4529.82545,N,00911.08555,E,1,08,3.01,132.8,M,47.1,M,,*40
$GNGGA,162413.00,4529.82551,N,00911.08544,E,1,08,3.01,132.7,M,47.1,M,,*4B
$GNGGA,162414.00,4529.82558,N,00911.08532,E,1,08,3.01,132.7,M,47.1,M,,*44
$GNGGA,162415.00,4529.82568,N,00911.08516,E,1,08,1.84,132.6,M,47.1,M,,*4E
$GNGGA,162416.00,4529.82573,N,00911.08505,E,1,08,1.84,132.5,M,47.1,M,,*46
$GNGGA,162417.00,4529.82574,N,00911.08501,E,1,08,1.84,132.6,M,47.1,M,,*47
$GNGGA,162418.00,4529.82578,N,00911.08494,E,1,08,3.01,132.6,M,47.1,M,,*46
$GNGGA,162419.00,4529.82583,N,00911.08484,E,1,08,1.84,132.5,M,47.1,M,,*4E
$GNGGA,162420.00,4529.82587,N,00911.08478,E,1,08,1.84,132.5,M,47.1,M,,*43
$GNGGA,162421.00,4529.82594,N,00911.08467,E,1,08,1.84,132.4,M,47.1,M,,*4F
$GNGGA,162422.00,4529.82596,N,00911.08465,E,1,08,1.45,132.4,M,47.1,M,,*41
$GNGGA,162423.00,4529.82595,N,00911.08464,E,1,08,3.01,132.4,M,47.1,M,,*40
$GNGGA,162424.00,4529.82595,N,00911.08464,E,1,08,1.45,132.4,M,47.1,M,,*45
$GNGGA,162425.00,4529.82594,N,00911.08465,E,1,08,1.88,132.4,M,47.1,M,,*45
$GNGGA,162426.00,4529.82591,N,00911.08469,E,1,08,2.26,132.5,M,47.1,M,,*49
$GNGGA,162427.00,4529.82587,N,00911.08475,E,1,08,2.26,132.5,M,47.1,M,,*42
$GNGGA,162428.00,4529.82583,N,00911.08481,E,1,08,1.39,132.5,M,47.1,M,,*4F
$GNGGA,162429.00,4529.82580,N,00911.08486,E,1,08,1.60,132.5,M,47.1,M,,*46
$GNGGA,162430.00,4529.82576,N,00911.08491,E,1,08,1.39,132.5,M,47.1,M,,*4D
$GNGGA,162431.00,4529.82570,N,00911.08499,E,1,08,1.39,132.6,M,47.1,M,,*41
$GNGGA,162432.00,4529.82564,N,00911.08507,E,1,08,2.26,132.6,M,47.1,M,,*4C
$GNGGA,162433.00,4529.82564,N,00911.08510,E,1,08,1.78,132.6,M,47.1,M,,*43
$GNGGA,162434.00,4529.82559,N,00911.08517,E,1,08,1.78,132.6,M,47.1,M,,*4D
$GNGGA,162435.00,4529.82552,N,00911.08529,E,1,08,2.26,132.6,M,47.1,M,,*42
$GNGGA,162436.00,4529.82548,N,00911.08537,E,1,08,1.78,132.6,M,47.1,M,,*4D
$GNGGA,162437.00,4529.82546,N,00911.08543,E,1,08,1.78,132.6,M,47.1,M,,*41
$GNGGA,162438.00,4529.82536,N,00911.08558,E,1,08,2.26,132.6,M,47.1,M,,*4B
$GNGGA,162439.00,4529.82670,N,00911.08431,E,2,08,1.78,130.7,M,47.1,M,,0000*4D
$GNGGA,162440.00,4529.82762,N,00911.08345,E,2,08,2.26,129.3,M,47.1,M,,0000*41
$GNGGA,162441.00,4529.82735,N,00911.08375,E,2,08,2.26,128.7,M,47.1,M,,0000*44
$GNGGA,162442.00,4529.82717,N,00911.08353,E,2,07,1.84,128.6,M,47.1,M,,0000*46
$GNGGA,162443.00,4529.82716,N,00911.08324,E,2,07,1.85,128.4,M,47.1,M,,0000*45
$GNGGA,162444.00,4529.82721,N,00911.08293,E,2,07,3.02,128.2,M,47.1,M,,0000*40
$GNGGA,162445.00,4529.82726,N,00911.08263,E,2,07,1.85,128.1,M,47.1,M,,0000*47
$GNGGA,162446.00,4529.82725,N,00911.08242,E,2,07,1.85,128.1,M,47.1,M,,0000*44
$GNGGA,162447.00,4529.82731,N,00911.08218,E,2,07,3.02,128.0,M,47.1,M,,0000*43
$GNGGA,162448.00,4529.82742,N,00911.08191,E,2,07,3.02,127.9,M,47.1,M,,0000*4C
$GNGGA,162449.00,4529.82756,N,00911.08161,E,2,07,1.85,127.8,M,47.1,M,,0000*4B
$GNGGA,162450.00,4529.82768,N,00911.08138,E,2,07,3.02,127.7,M,47.1,M,,0000*40
$GNGGA,162451.00,4529.82778,N,00911.08118,E,2,07,3.02,127.6,M,47.1,M,,0000*43
$GNGGA,162452.00,4529.82785,N,00911.08095,E,2,07,1.85,127.6,M,47.1,M,,0000*4B
$GNGGA,162453.00,4529.82791,N,00911.08076,E,2,07,3.02,127.6,M,47.1,M,,0000*4F
$GNGGA,162454.00,4529.82796,N,00911.08058,E,2,07,1.85,127.6,M,47.1,M,,0000*4E
$GNGGA,162455.00,4529.82797,N,00911.08044,E,2,07,1.85,127.7,M,47.1,M,,0000*42
$GNGGA,162456.00,4529.82797,N,00911.08037,E,2,07,1.85,127.7,M,47.1,M,,0000*45
$GNGGA,162457.00,4529.82796,N,00911.08034,E,2,07,1.85,127.7,M,47.1,M,,0000*46
$GNGGA,162458.00,4529.82799,N,00911.08026,E,2,07,1.85,127.6,M,47.1,M,,0000*44
$GNGGA,162459.00,4529.82800,N,00911.08020,E,2,07,1.85,127.6,M,47.1,M,,0000*4C
$GNGGA,162500.00,4529.82799,N,00911.08015,E,2,07,1.45,127.6,M,47.1,M,,0000*44
$GNGGA,162501.00,4529.82797,N,00911.08010,E,2,07,1.87,127.7,M,47.1,M,,0000*41
$GNGGA,162502.00,4529.82790,N,00911.08008,E,2,07,1.85,127.8,M,47.1,M,,0000*41
$GNGGA,162503.00,4529.82786,N,00911.08002,E,2,07,1.85,127.9,M,47.1,M,,0000*4C
$GNGGA,162504.00,4529.82777,N,00911.08001,E,2,07,1.45,128.1,M,47.1,M,,0000*4D
$GNGGA,162505.00,4529.82768,N,00911.08000,E,2,07,1.87,128.2,M,47.1,M,,0000*4E
$GNGGA,162506.00,4529.82761,N,00911.07998,E,2,07,1.87,128.4,M,47.1,M,,0000*45
$GNGGA,162507.00,4529.82754,N,00911.08000,E,2,07,1.45,128.5,M,47.1,M,,0000*4A
$GNGGA,162508.00,4529.82746,N,00911.08001,E,2,07,1.45,128.6,M,47.1,M,,0000*44
$GNGGA,162509.00,4529.82733,N,00911.08007,E,2,07,1.45,128.8,M,47.1,M,,0000*4F
$GNGGA,162510.00,4529.82716,N,00911.08017,E,2,07,1.45,129.0,M,47.1,M,,0000*48
$GNGGA,162511.00,4529.82702,N,00911.08024,E,2,07,1.87,129.2,M,47.1,M,,0000*40
$GNGGA,162512.00,4529.82689,N,00911.08032,E,2,07,1.85,129.3,M,47.1,M,,0000*45
$GNGGA,162513.00,4529.82681,N,00911.08034,E,2,07,1.85,129.3,M,47.1,M,,0000*4A
$GNGGA,162514.00,4529.82668,N,00911.08043,E,2,07,1.85,129.4,M,47.1,M,,0000*4D
$GNGGA,162515.00,4529.82660,N,00911.08045,E,2,07,1.85,129.4,M,47.1,M,,0000*42
$GNGGA,162516.00,4529.82653,N,00911.08049,E,2,07,1.85,129.4,M,47.1,M,,0000*4D
$GNGGA,162517.00,4529.82645,N,00911.08055,E,2,07,1.85,129.5,M,47.1,M,,0000*47
$GNGGA,162518.00,4529.82643,N,00911.08054,E,2,07,1.85,129.5,M,47.1,M,,0000*4F
$GNGGA,162519.00,4529.82639,N,00911.08053,E,2,07,1.85,129.5,M,47.1,M,,0000*44
$GNGGA,162520.00,4529.82642,N,00911.08045,E,2,07,1.85,129.4,M,47.1,M,,0000*44
$GNGGA,162521.00,4529.82647,N,00911.08036,E,2,07,1.85,129.3,M,47.1,M,,0000*43
$GNGGA,162522.00,4529.82653,N,00911.08026,E,2,07,1.86,129.2,M,47.1,M,,0000*46
$GNGGA,162523.00,4529.82665,N,00911.08011,E,2,07,1.86,129.0,M,47.1,M,,0000*44
$GNGGA,162524.00,4529.82677,N,00911.07995,E,2,07,3.03,128.8,M,47.1,M,,0000*4C
$GNGGA,162525.00,4529.82690,N,00911.07978,E,2,07,1.86,128.7,M,47.1,M,,0000*47
$GNGGA,162526.00,4529.82706,N,00911.07958,E,2,07,1.86,128.4,M,47.1,M,,0000*4B
$GNGGA,162527.00,4529.82720,N,00911.07941,E,2,07,1.86,128.2,M,47.1,M,,0000*40
$GNGGA,162528.00,4529.82730,N,00911.07932,E,2,07,1.86,128.1,M,47.1,M,,0000*49
$GNGGA,162529.00,4529.82743,N,00911.07919,E,2,07,1.86,127.9,M,47.1,M,,0000*42
$GNGGA,162530.00,4529.82904,N,00911.08012,E,2,07,1.86,129.4,M,47.1,M,,0000*49
$GNGGA,162531.00,4529.82906,N,00911.08075,E,2,07,1.86,130.3,M,47.1,M,,0000*44
$GNGGA,162532.00,4529.82898,N,00911.08128,E,2,07,1.86,131.0,M,47.1,M,,0000*4A
$GNGGA,162533.00,4529.82908,N,00911.08142,E,2,07,3.04,131.2,M,47.1,M,,0000*45
$GNGGA,162534.00,4529.82921,N,00911.08145,E,2,07,1.86,131.3,M,47.1,M,,0000*47
$GNGGA,162535.00,4529.82928,N,00911.08145,E,2,08,1.86,131.4,M,47.1,M,,0000*47
$GNGGA,162536.00,4529.82931,N,00911.08100,E,2,08,3.04,131.9,M,47.1,M,,0000*48
$GNGGA,162537.00,4529.82936,N,00911.08067,E,2,08,3.04,132.2,M,47.1,M,,0000*46
$GNGGA,162538.00,4529.82942,N,00911.08028,E,2,07,1.86,132.5,M,47.1,M,,0000*41
$GNGGA,162539.00,4529.82938,N,00911.08014,E,2,07,3.04,132.9,M,47.1,M,,0000*46
$GNGGA,162540.00,4529.82934,N,00911.08003,E,2,07,1.45,133.2,M,47.1,M,,0000*4F
$GNGGA,162541.00,4529.82934,N,00911.07993,E,2,07,1.45,133.4,M,47.1,M,,0000*47
$GNGGA,162542.00,4529.82935,N,00911.07977,E,2,07,3.04,133.6,M,47.1,M,,0000*4A
$GNGGA,162543.00,4529.82940,N,00911.07966,E,2,07,1.45,133.6,M,47.1,M,,0000*4E
$GNGGA,162544.00,4529.82937,N,00911.07964,E,2,07,1.45,133.7,M,47.1,M,,0000*4A
$GNGGA,162545.00,4529.82942,N,00911.07937,E,2,07,3.04,133.8,M,47.1,M,,0000*47
$GNGGA,162546.00,4529.82944,N,00911.07911,E,2,07,1.45,134.0,M,47.1,M,,0000*4E
$GNGGA,162547.00,4529.82947,N,00911.07867,E,2,07,1.45,134.4,M,47.1,M,,0000*48
$GNGGA,162548.00,4529.82951,N,00911.07834,E,2,07,1.86,134.8,M,47.1,M,,0000*45
$GNGGA,162549.00,4529.82956,N,00911.07805,E,2,07,1.45,135.1,M,47.1,M,,0000*46
$GNGGA,162550.00,4529.82962,N,00911.07787,E,2,07,1.45,135.3,M,47.1,M,,0000*4E
$GNGGA,162551.00,4529.82967,N,00911.07782,E,2,07,1.86,135.3,M,47.1,M,,0000*40
$GNGGA,162552.00,4529.82976,N,00911.07771,E,2,07,1.45,135.4,M,47.1,M,,0000*47
$GNGGA,162553.00,4529.82982,N,00911.07764,E,2,07,1.45,135.5,M,47.1,M,,0000*48
$GNGGA,162554.00,4529.82986,N,00911.07761,E,2,08,3.04,135.6,M,47.1,M,,0000*45
$GNGGA,162555.00,4529.82988,N,00911.07761,E,2,08,1.85,135.7,M,47.1,M,,0000*40
$GNGGA,162556.00,4529.82988,N,00911.07763,E,2,08,1.45,135.8,M,47.1,M,,0000*42
$GNGGA,162557.00,4529.82982,N,00911.07785,E,2,08,1.86,135.8,M,47.1,M,,0000*4E
$GNGGA,162558.00,4529.82979,N,00911.07801,E,2,08,1.45,135.8,M,47.1,M,,0000*49
$GNGGA,162559.00,4529.82974,N,00911.07820,E,2,08,1.45,135.8,M,47.1,M,,0000*46
$GNGGA,162600.00,4529.82974,N,00911.07831,E,2,08,3.05,135.7,M,47.1,M,,0000*40
$GNGGA,162601.00,4529.82965,N,00911.07852,E,2,08,1.45,135.8,M,47.1,M,,0000*4D
$GNGGA,162602.00,4529.82958,N,00911.07870,E,2,08,1.85,135.8,M,47.1,M,,0000*4C
$GNGGA,162603.00,4529.82948,N,00911.07890,E,2,08,3.05,135.8,M,47.1,M,,0000*48
$GNGGA,162604.00,4529.82939,N,00911.07912,E,2,08,1.85,135.8,M,47.1,M,,0000*48
$GNGGA,162605.00,4529.82931,N,00911.07930,E,2,08,1.45,135.8,M,47.1,M,,0000*4D
$GNGGA,162606.00,4529.82921,N,00911.07950,E,2,08,3.05,135.9,M,47.1,M,,0000*4E
$GNGGA,162607.00,4529.82910,N,00911.07973,E,2,08,1.45,136.0,M,47.1,M,,0000*40
$GNGGA,162608.00,4529.82905,N,00911.07987,E,2,08,1.45,136.0,M,47.1,M,,0000*40
$GNGGA,162609.00,4529.82902,N,00911.07997,E,2,08,1.45,136.1,M,47.1,M,,0000*46
$GNGGA,162610.00,4529.82915,N,00911.07993,E,2,08,1.45,135.9,M,47.1,M,,0000*47
$GNGGA,162611.00,4529.82928,N,00911.07990,E,2,08,1.45,135.7,M,47.1,M,,0000*45
$GNGGA,162612.00,4529.82944,N,00911.07983,E,2,08,1.45,135.5,M,47.1,M,,0000*4C
$GNGGA,162613.00,4529.82957,N,00911.07975,E,2,08,1.39,135.3,M,47.1,M,,0000*4B
$GNGGA,162614.00,4529.82960,N,00911.07979,E,2,08,1.39,135.3,M,47.1,M,,0000*44
$GNGGA,162615.00,4529.82956,N,00911.07990,E,2,08,1.80,135.3,M,47.1,M,,0000*45
$GNGGA,162616.00,4529.82953,N,00911.08002,E,2,08,1.39,135.3,M,47.1,M,,0000*4C
$GNGGA,162617.00,4529.82950,N,00911.08009,E,2,08,1.39,135.2,M,47.1,M,,0000*44
$GNGGA,162618.00,4529.82945,N,00911.08018,E,2,08,1.39,135.2,M,47.1,M,,0000*4F
$GNGGA,162619.00,4529.82945,N,00911.08026,E,2,08,1.39,135.2,M,47.1,M,,0000*43
$GNGGA,162620.00,4529.82942,N,00911.08037,E,2,08,1.80,135.3,M,47.1,M,,0000*4D
$GNGGA,162621.00,4529.82943,N,00911.08044,E,2,08,1.39,135.3,M,47.1,M,,0000*4B
$GNGGA,162622.00,4529.82949,N,00911.08046,E,2,08,1.39,135.3,M,47.1,M,,0000*40
$GNGGA,162623.00,4529.82963,N,00911.08039,E,2,08,1.57,135.2,M,47.1,M,,0000*48
$GNGGA,162624.00,4529.82978,N,00911.08025,E,2,08,1.39,135.3,M,47.1,M,,0000*41
$GNGGA,162625.00,4529.82992,N,00911.08014,E,2,08,1.57,135.3,M,47.1,M,,0000*4E
$GNGGA,162626.00,4529.83007,N,00911.08002,E,2,08,1.39,135.3,M,47.1,M,,0000*46
$GNGGA,162627.00,4529.83015,N,00911.07992,E,2,08,1.57,135.3,M,47.1,M,,0000*43
$GNGGA,162628.00,4529.83028,N,00911.07978,E,2,08,1.39,135.3,M,47.1,M,,0000*4E
$GNGGA,162629.00,4529.83029,N,00911.07980,E,2,08,1.57,135.3,M,47.1,M,,0000*41
$GNGGA,162630.00,4529.83037,N,00911.07976,E,2,08,1.57,135.2,M,47.1,M,,0000*4E
$GNGGA,162631.00,4529.83040,N,00911.07978,E,2,08,1.57,135.2,M,47.1,M,,0000*41
$GNGGA,162632.00,4529.83039,N,00911.07984,E,2,08,1.39,135.2,M,47.1,M,,0000*47
$GNGGA,162633.00,4529.83042,N,00911.07981,E,2,08,1.39,135.1,M,47.1,M,,0000*4C
$GNGGA,162634.00,4529.83049,N,00911.07972,E,2,08,1.39,135.1,M,47.1,M,,0000*4C
$GNGGA,162635.00,4529.83052,N,00911.07967,E,2,08,1.57,135.0,M,47.1,M,,0000*4A
$GNGGA,162636.00,4529.83056,N,00911.07959,E,2,08,2.27,135.0,M,47.1,M,,0000*44
$GNGGA,162637.00,4529.83053,N,00911.07961,E,2,08,1.57,135.0,M,47.1,M,,0000*4F
$GNGGA,162638.00,4529.83053,N,00911.07957,E,2,08,1.39,135.1,M,47.1,M,,0000*4C
$GNGGA,162639.00,4529.83057,N,00911.07948,E,2,08,2.27,135.1,M,47.1,M,,0000*4B
$GNGGA,162640.00,4529.83056,N,00911.07943,E,2,08,1.57,135.4,M,47.1,M,,0000*4E
$GNGGA,162641.00,4529.83056,N,00911.07938,E,2,08,1.57,135.5,M,47.1,M,,0000*42
$GNGGA,162642.00,4529.83054,N,00911.07931,E,2,08,1.57,135.8,M,47.1,M,,0000*47
$GNGGA,162643.00,4529.83055,N,00911.07919,E,2,08,1.57,136.0,M,47.1,M,,0000*46
$GNGGA,162644.00,4529.83056,N,00911.07907,E,2,08,1.57,136.2,M,47.1,M,,0000*4F
$GNGGA,162645.00,4529.83054,N,00911.07900,E,2,08,1.57,136.4,M,47.1,M,,0000*4D
$GNGGA,162646.00,4529.83047,N,00911.07900,E,2,08,1.57,136.6,M,47.1,M,,0000*4E
$GNGGA,162647.00,4529.83041,N,00911.07903,E,2,08,1.57,136.6,M,47.1,M,,0000*4A
$GNGGA,162648.00,4529.83039,N,00911.07903,E,2,08,1.57,136.6,M,47.1,M,,0000*4A
$GNGGA,162649.00,4529.83034,N,00911.07905,E,2,08,1.57,136.6,M,47.1,M,,0000*40
$GNGGA,162650.00,4529.83027,N,00911.07910,E,2,08,1.57,136.6,M,47.1,M,,0000*4E
$GNGGA,162651.00,4529.83021,N,00911.07913,E,2,08,1.57,136.6,M,47.1,M,,0000*4A
$GNGGA,162652.00,4529.83018,N,00911.07916,E,2,08,1.57,136.6,M,47.1,M,,0000*46
$GNGGA,162653.00,4529.83015,N,00911.07916,E,2,08,1.57,136.7,M,47.1,M,,0000*4B
$GNGGA,162654.00,4529.83013,N,00911.07914,E,2,08,2.28,136.8,M,47.1,M,,0000*4C
$GNGGA,162655.00,4529.83012,N,00911.07908,E,2,08,2.28,136.9,M,47.1,M,,0000*40
$GNGGA,162656.00,4529.83007,N,00911.07905,E,2,08,1.57,137.1,M,47.1,M,,0000*48
$GNGGA,162657.00,4529.82996,N,00911.07907,E,2,08,1.57,137.4,M,47.1,M,,0000*4E
$GNGGA,162658.00,4529.82979,N,00911.07918,E,2,08,1.57,137.7,M,47.1,M,,0000*4D
$GNGGA,162659.00,4529.82964,N,00911.07928,E,2,08,1.57,138.0,M,47.1,M,,0000*4B
$GNGGA,162700.00,4529.82938,N,00911.07950,E,2,08,1.57,138.4,M,47.1,M,,0000*44
$GNGGA,162701.00,4529.82898,N,00911.07986,E,2,08,1.39,139.0,M,47.1,M,,0000*48
$GNGGA,162702.00,4529.82864,N,00911.08018,E,2,08,1.39,139.5,M,47.1,M,,0000*4C
$GNGGA,162703.00,4529.82823,N,00911.08057,E,2,08,1.57,140.1,M,47.1,M,,0000*47
$GNGGA,162704.00,4529.82791,N,00911.08086,E,2,08,1.39,140.5,M,47.1,M,,0000*46
$GNGGA,162705.00,4529.82765,N,00911.08108,E,2,08,1.57,140.9,M,47.1,M,,0000*4F
$GNGGA,162706.00,4529.82742,N,00911.08127,E,2,08,1.83,141.3,M,47.1,M,,0000*46
$GNGGA,162707.00,4529.82719,N,00911.08149,E,2,08,1.83,141.6,M,47.1,M,,0000*44
$GNGGA,162708.00,4529.82690,N,00911.08175,E,2,07,1.83,141.9,M,47.1,M,,0000*44
$GNGGA,162709.00,4529.82664,N,00911.08200,E,2,07,1.83,142.3,M,47.1,M,,0000*46
$GNGGA,162710.00,4529.82644,N,00911.08218,E,2,07,1.83,142.6,M,47.1,M,,0000*40
$GNGGA,162711.00,4529.82628,N,00911.08233,E,2,07,1.83,142.8,M,47.1,M,,0000*4C
$GNGGA,162712.00,4529.82601,N,00911.08258,E,2,07,1.83,143.1,M,47.1,M,,0000*41
$GNGGA,162713.00,4529.82574,N,00911.08285,E,2,07,1.45,143.5,M,47.1,M,,0000*4F
$GNGGA,162714.00,4529.82548,N,00911.08310,E,2,07,1.45,143.8,M,47.1,M,,0000*47
$GNGGA,162715.00,4529.82523,N,00911.08335,E,2,07,1.82,144.1,M,47.1,M,,0000*49
$GNGGA,162716.00,4529.82499,N,00911.08359,E,2,07,1.45,144.3,M,47.1,M,,0000*49
$GNGGA,162717.00,4529.82483,N,00911.08373,E,2,07,1.45,144.5,M,47.1,M,,0000*4D
$GNGGA,162718.00,4529.82465,N,00911.08391,E,2,07,1.45,144.7,M,47.1,M,,0000*44
$GNGGA,162719.00,4529.82452,N,00911.08405,E,2,07,1.45,144.9,M,47.1,M,,0000*45
$GNGGA,162720.00,4529.82439,N,00911.08419,E,2,07,1.45,145.0,M,47.1,M,,0000*47
$GNGGA,162721.00,4529.82429,N,00911.08428,E,2,07,1.45,145.2,M,47.1,M,,0000*47
$GNGGA,162722.00,4529.82416,N,00911.08442,E,2,07,1.45,145.4,M,47.1,M,,0000*42
$GNGGA,162723.00,4529.82405,N,00911.08454,E,2,07,1.45,145.5,M,47.1,M,,0000*47
$GNGGA,162724.00,4529.82394,N,00911.08466,E,2,07,1.82,145.7,M,47.1,M,,0000*47
$GNGGA,162725.00,4529.82383,N,00911.08480,E,2,07,1.45,145.8,M,47.1,M,,0000*4C
$GNGGA,162726.00,4529.82370,N,00911.08494,E,2,07,1.45,146.0,M,47.1,M,,0000*4D
$GNGGA,162727.00,4529.82362,N,00911.08504,E,2,07,1.82,146.2,M,47.1,M,,0000*4E
$GNGGA,162728.00,4529.82353,N,00911.08512,E,2,07,1.82,146.5,M,47.1,M,,0000*43
$GNGGA,162729.00,4529.82335,N,00911.08530,E,2,07,1.82,146.8,M,47.1,M,,0000*4F
$GNGGA,162730.00,4529.82315,N,00911.08551,E,2,07,1.82,147.0,M,47.1,M,,0000*4B
$GNGGA,162731.00,4529.82294,N,00911.08573,E,2,08,1.35,147.3,M,47.1,M,,0000*42
$GNGGA,162732.00,4529.82276,N,00911.08593,E,2,08,1.76,147.5,M,47.1,M,,0000*42
$GNGGA,162733.00,4529.82264,N,00911.08606,E,2,08,1.76,147.6,M,47.1,M,,0000*4C
$GNGGA,162734.00,4529.82253,N,00911.08619,E,2,08,1.35,147.7,M,47.1,M,,0000*47
$GNGGA,162735.00,4529.82240,N,00911.08634,E,2,08,1.35,147.8,M,47.1,M,,0000*44
$GNGGA,162736.00,4529.82225,N,00911.08650,E,2,08,1.76,148.0,M,47.1,M,,0000*46
$GNGGA,162737.00,4529.82207,N,00911.08667,E,2,08,1.35,148.2,M,47.1,M,,0000*46
$GNGGA,162738.00,4529.82201,N,00911.08672,E,2,08,1.76,148.3,M,47.1,M,,0000*4D
$GNGGA,162739.00,4529.82205,N,00911.08665,E,2,08,1.35,148.4,M,47.1,M,,0000*4E
$GNGGA,162740.00,4529.82203,N,00911.08665,E,2,08,1.35,148.3,M,47.1,M,,0000*41
$GNGGA,162741.00,4529.82198,N,00911.08673,E,2,08,1.35,148.4,M,47.1,M,,0000*41
$GNGGA,162742.00,4529.82188,N,00911.08688,E,2,08,1.50,148.5,M,47.1,M,,0000*45
$GNGGA,162743.00,4529.82179,N,00911.08701,E,2,08,1.35,148.6,M,47.1,M,,0000*4A
$GNGGA,162744.00,4529.82172,N,00911.08710,E,2,08,1.35,148.7,M,47.1,M,,0000*47
$GNGGA,162745.00,4529.82166,N,00911.08719,E,2,08,1.35,148.7,M,47.1,M,,0000*4A
$GNGGA,162746.00,4529.82160,N,00911.08728,E,2,08,1.35,148.7,M,47.1,M,,0000*4D
$GNGGA,162747.00,4529.82156,N,00911.08735,E,2,08,1.35,148.7,M,47.1,M,,0000*45
$GNGGA,162748.00,4529.82149,N,00911.08744,E,2,08,1.35,148.7,M,47.1,M,,0000*42
$GNGGA,162749.00,4529.82139,N,00911.08757,E,2,08,1.35,148.7,M,47.1,M,,0000*46
$GNGGA,162750.00,4529.82133,N,00911.08765,E,2,08,1.50,148.8,M,47.1,M,,0000*49
$GNGGA,162751.00,4529.82127,N,00911.08772,E,2,08,1.75,148.8,M,47.1,M,,0000*4C
$GNGGA,162752.00,4529.82121,N,00911.08779,E,2,08,1.75,148.9,M,47.1,M,,0000*43
$GNGGA,162753.00,4529.82118,N,00911.08782,E,2,08,1.35,148.8,M,47.1,M,,0000*49
$GNGGA,162754.00,4529.82120,N,00911.08781,E,2,08,1.35,148.8,M,47.1,M,,0000*46
$GNGGA,162755.00,4529.82130,N,00911.08771,E,2,08,1.50,148.6,M,47.1,M,,0000*44
$GNGGA,162756.00,4529.82151,N,00911.08751,E,2,08,1.35,148.5,M,47.1,M,,0000*42
$GNGGA,162757.00,4529.82201,N,00911.08700,E,2,08,1.35,148.4,M,47.1,M,,0000*40
$GNGGA,162758.00,4529.82244,N,00911.08657,E,2,08,1.35,148.2,M,47.1,M,,0000*4B
$GNGGA,162759.00,4529.82281,N,00911.08618,E,2,08,1.35,147.9,M,47.1,M,,0000*4C
$GNGGA,162800.00,4529.82310,N,00911.08588,E,2,08,1.75,147.7,M,47.1,M,,0000*46
$GNGGA,162801.00,4529.82325,N,00911.08572,E,2,08,1.75,147.5,M,47.1,M,,0000*46
$GNGGA,162802.00,4529.82348,N,00911.08547,E,2,08,1.50,147.3,M,47.1,M,,0000*49
$GNGGA,162803.00,4529.82363,N,00911.08530,E,2,08,1.50,147.2,M,47.1,M,,0000*40
$GNGGA,162804.00,4529.82373,N,00911.08519,E,2,08,1.50,147.1,M,47.1,M,,0000*4E
$GNGGA,162805.00,4529.82382,N,00911.08509,E,2,08,1.50,147.0,M,47.1,M,,0000*41
$GNGGA,162806.00,4529.82392,N,00911.08498,E,2,08,1.74,146.8,M,47.1,M,,0000*45
$GNGGA,162807.00,4529.82396,N,00911.08494,E,2,08,1.50,146.8,M,47.1,M,,0000*4A
$GNGGA,162808.00,4529.82398,N,00911.08494,E,2,08,1.35,146.7,M,47.1,M,,0000*47
$GNGGA,162809.00,4529.82409,N,00911.08483,E,2,08,2.27,146.5,M,47.1,M,,0000*4D
$GNGGA,162810.00,4529.82419,N,00911.08471,E,2,08,1.50,146.4,M,47.1,M,,0000*4B
$GNGGA,162811.00,4529.82426,N,00911.08463,E,2,09,1.35,146.3,M,47.1,M,,0000*40
$GNGGA,162812.00,4529.82437,N,00911.08450,E,2,09,1.50,146.3,M,47.1,M,,0000*40
$GNGGA,162813.00,4529.82448,N,00911.08435,E,2,09,1.35,146.3,M,47.1,M,,0000*49
$GNGGA,162814.00,4529.82460,N,00911.08422,E,2,09,1.35,146.2,M,47.1,M,,0000*43
$GNGGA,162815.00,4529.82469,N,00911.08411,E,2,09,2.27,146.2,M,47.1,M,,0000*4B
$GNGGA,162816.00,4529.82476,N,00911.08403,E,2,09,2.27,146.3,M,47.1,M,,0000*44
$GNGGA,162817.00,4529.82488,N,00911.08390,E,2,09,1.35,146.2,M,47.1,M,,0000*48
$GNGGA,162818.00,4529.82493,N,00911.08387,E,2,09,1.50,146.2,M,47.1,M,,0000*48
$GNGGA,162819.00,4529.82499,N,00911.08382,E,2,09,1.35,146.1,M,47.1,M,,0000*46
$GNGGA,162820.00,4529.82499,N,00911.08382,E,2,09,1.35,146.1,M,47.1,M,,0000*4C
$GNGGA,162821.00,4529.82496,N,00911.08387,E,2,09,2.26,146.1,M,47.1,M,,0000*46
$GNGGA,162822.00,4529.82496,N,00911.08386,E,2,09,1.74,146.1,M,47.1,M,,0000*40
$GNGGA,162823.00,4529.82505,N,00911.08374,E,2,09,1.35,145.9,M,47.1,M,,0000*49
$GNGGA,162824.00,4529.82509,N,00911.08367,E,2,09,1.74,145.8,M,47.1,M,,0000*44
$GNGGA,162825.00,4529.82514,N,00911.08362,E,2,09,1.74,145.7,M,47.1,M,,0000*43
$GNGGA,162826.00,4529.82520,N,00911.08355,E,2,09,2.26,145.7,M,47.1,M,,0000*47
$GNGGA,162827.00,4529.82532,N,00911.08342,E,2,09,1.74,145.6,M,47.1,M,,0000*46
$GNGGA,162828.00,4529.82545,N,00911.08329,E,2,09,1.74,145.5,M,47.1,M,,0000*47
$GNGGA,162829.00,4529.82565,N,00911.08310,E,2,09,1.74,145.4,M,47.1,M,,0000*4F
$GNGGA,162830.00,4529.82583,N,00911.08292,E,2,09,1.74,145.4,M,47.1,M,,0000*44
$GNGGA,162831.00,4529.82596,N,00911.08280,E,2,09,1.74,145.3,M,47.1,M,,0000*45
$GNGGA,162832.00,4529.82609,N,00911.08268,E,2,09,2.26,145.3,M,47.1,M,,0000*41
$GNGGA,162833.00,4529.82617,N,00911.08261,E,2,09,1.73,145.2,M,47.1,M,,0000*44
$GNGGA,162834.00,4529.82627,N,00911.08250,E,2,09,1.73,145.1,M,47.1,M,,0000*41
$GNGGA,162835.00,4529.82638,N,00911.08237,E,2,09,1.73,144.9,M,47.1,M,,0000*46
$GNGGA,162836.00,4529.82644,N,00911.08231,E,2,08,2.26,144.8,M,47.1,M,,0000*4B
$GNGGA,162837.00,4529.82654,N,00911.08218,E,2,08,1.73,144.6,M,47.1,M,,0000*4D
$GNGGA,162838.00,4529.82664,N,00911.08205,E,2,08,2.25,144.5,M,47.1,M,,0000*4E
$GNGGA,162839.00,4529.82673,N,00911.08196,E,2,08,2.25,144.5,M,47.1,M,,0000*40
$GNGGA,162840.00,4529.82687,N,00911.08182,E,2,08,1.73,144.4,M,47.1,M,,0000*41
$GNGGA,162841.00,4529.82705,N,00911.08163,E,2,08,1.73,144.3,M,47.1,M,,0000*43
$GNGGA,162842.00,4529.82717,N,00911.08150,E,2,08,1.73,144.2,M,47.1,M,,0000*42
$GNGGA,162843.00,4529.82723,N,00911.08147,E,2,08,1.73,144.1,M,47.1,M,,0000*41
$GNGGA,162844.00,4529.82726,N,00911.08146,E,2,08,1.73,144.0,M,47.1,M,,0000*43
$GNGGA,162845.00,4529.82735,N,00911.08137,E,2,08,2.25,143.8,M,47.1,M,,0000*49
$GNGGA,162846.00,4529.82741,N,00911.08135,E,2,08,1.73,143.7,M,47.1,M,,0000*44
$GNGGA,162847.00,4529.82748,N,00911.08131,E,2,08,1.73,143.6,M,47.1,M,,0000*49
$GNGGA,162848.00,4529.82753,N,00911.08130,E,2,08,1.73,143.5,M,47.1,M,,0000*4E
$GNGGA,162849.00,4529.82761,N,00911.08125,E,2,08,2.25,143.2,M,47.1,M,,0000*4D
$GNGGA,162850.00,4529.82756,N,00911.08134,E,2,08,1.73,143.2,M,47.1,M,,0000*41
$GNGGA,162851.00,4529.82748,N,00911.08145,E,2,08,1.73,143.2,M,47.1,M,,0000*49
$GNGGA,162852.00,4529.82741,N,00911.08158,E,2,08,2.25,143.1,M,47.1,M,,0000*4C
$GNGGA,162853.00,4529.82749,N,00911.08147,E,2,08,2.25,143.0,M,47.1,M,,0000*4A
$GNGGA,162854.00,4529.82753,N,00911.08146,E,2,08,2.25,142.8,M,47.1,M,,0000*4E
$GNGGA,162855.00,4529.82753,N,00911.08149,E,2,08,1.73,142.7,M,47.1,M,,0000*4F
$GNGGA,162856.00,4529.82750,N,00911.08157,E,2,08,1.73,142.6,M,47.1,M,,0000*41
$GNGGA,162857.00,4529.82743,N,00911.08168,E,2,08,1.73,142.4,M,47.1,M,,0000*4C
$GNGGA,162858.00,4529.82736,N,00911.08180,E,2,08,1.73,142.4,M,47.1,M,,0000*47
$GNGGA,162859.00,4529.82733,N,00911.08187,E,2,08,1.73,142.3,M,47.1,M,,0000*43
$GNGGA,162900.00,4529.82729,N,00911.08196,E,2,08,2.24,142.3,M,47.1,M,,0000*44
$GNGGA,162901.00,4529.82726,N,00911.08204,E,2,08,1.72,142.3,M,47.1,M,,0000*42
$GNGGA,162902.00,4529.82724,N,00911.08210,E,2,08,1.72,142.3,M,47.1,M,,0000*46
$GNGGA,162903.00,4529.82721,N,00911.08219,E,2,08,1.72,142.4,M,47.1,M,,0000*4C
$GNGGA,162904.00,4529.82716,N,00911.08228,E,2,08,1.72,142.4,M,47.1,M,,0000*4D
$GNGGA,162905.00,4529.82711,N,00911.08236,E,2,08,1.72,142.5,M,47.1,M,,0000*45
$GNGGA,162906.00,4529.82702,N,00911.08248,E,2,08,1.72,142.5,M,47.1,M,,0000*4D
$GNGGA,162907.00,4529.82702,N,00911.08248,E,2,08,1.72,142.5,M,47.1,M,,0000*4C
$GNGGA,162908.00,4529.82702,N,00911.08248,E,2,08,1.72,142.6,M,47.1,M,,0000*40
$GNGGA,162909.00,4529.82699,N,00911.08250,E,2,08,1.72,142.6,M,47.1,M,,0000*4B
$GNGGA,162910.00,4529.82695,N,00911.08249,E,2,08,2.24,142.7,M,47.1,M,,0000*46
$GNGGA,162911.00,4529.82697,N,00911.08243,E,2,08,2.24,142.8,M,47.1,M,,0000*40
$GNGGA,162912.00,4529.82695,N,00911.08238,E,2,08,1.72,142.9,M,47.1,M,,0000*4C
$GNGGA,162913.00,4529.82693,N,00911.08238,E,2,08,2.24,143.0,M,47.1,M,,0000*43
$GNGGA,162914.00,4529.82682,N,00911.08245,E,2,08,2.24,143.3,M,47.1,M,,0000*4D
$GNGGA,162915.00,4529.82676,N,00911.08246,E,2,08,2.24,143.5,M,47.1,M,,0000*42
$GNGGA,162916.00,4529.82671,N,00911.08247,E,2,08,1.72,143.6,M,47.1,M,,0000*44
$GNGGA,162917.00,4529.82687,N,00911.08224,E,2,08,1.35,143.6,M,47.1,M,,0000*4A
$GNGGA,162918.00,4529.82680,N,00911.08224,E,2,08,2.23,143.7,M,47.1,M,,0000*47
$GNGGA,162919.00,4529.82669,N,00911.08231,E,2,08,2.23,143.9,M,47.1,M,,0000*4B
$GNGGA,162920.00,4529.82659,N,00911.08237,E,2,08,2.23,144.1,M,47.1,M,,0000*4B
$GNGGA,162921.00,4529.82649,N,00911.08247,E,2,08,1.72,144.3,M,47.1,M,,0000*49
$GNGGA,162922.00,4529.82638,N,00911.08261,E,2,08,1.35,144.5,M,47.1,M,,0000*4D
$GNGGA,162923.00,4529.82633,N,00911.08266,E,2,08,1.72,144.7,M,47.1,M,,0000*41
$GNGGA,162924.00,4529.82633,N,00911.08266,E,2,08,1.72,144.7,M,47.1,M,,0000*46
$GNGGA,162925.00,4529.82625,N,00911.08277,E,2,08,1.72,144.9,M,47.1,M,,0000*4E
$GNGGA,162926.00,4529.82612,N,00911.08291,E,2,08,1.35,145.1,M,47.1,M,,0000*4B
$GNGGA,162927.00,4529.82595,N,00911.08310,E,2,08,1.71,145.3,M,47.1,M,,0000*4C
$GNGGA,162928.00,4529.82585,N,00911.08317,E,2,08,1.71,145.4,M,47.1,M,,0000*42
$GNGGA,162929.00,4529.82573,N,00911.08324,E,2,08,1.71,145.5,M,47.1,M,,0000*4B
$GNGGA,162930.00,4529.82574,N,00911.08319,E,2,08,1.71,145.4,M,47.1,M,,0000*4B
$GNGGA,162931.00,4529.82570,N,00911.08315,E,2,08,1.35,145.4,M,47.1,M,,0000*42
$GNGGA,162932.00,4529.82567,N,00911.08315,E,2,08,1.35,145.4,M,47.1,M,,0000*47
$GNGGA,162933.00,4529.82563,N,00911.08316,E,2,08,1.71,145.4,M,47.1,M,,0000*41
$GNGGA,162934.00,4529.82546,N,00911.08330,E,2,08,1.71,145.7,M,47.1,M,,0000*46
$GNGGA,162935.00,4529.82537,N,00911.08339,E,2,08,1.35,145.8,M,47.1,M,,0000*47
$GNGGA,162936.00,4529.82532,N,00911.08343,E,2,08,1.71,145.9,M,47.1,M,,0000*4D
$GNGGA,162937.00,4529.82526,N,00911.08347,E,2,08,1.50,146.0,M,47.1,M,,0000*44
$GNGGA,162938.00,4529.82514,N,00911.08359,E,2,08,2.22,146.1,M,47.1,M,,0000*42
$GNGGA,162939.00,4529.82512,N,00911.08361,E,2,08,1.71,146.1,M,47.1,M,,0000*4B
$GNGGA,162940.00,4529.82514,N,00911.08357,E,2,08,1.35,145.9,M,47.1,M,,0000*4D
$GNGGA,162941.00,4529.82527,N,00911.08342,E,2,08,2.22,145.5,M,47.1,M,,0000*41
$GNGGA,162942.00,4529.82531,N,00911.08338,E,2,08,1.71,145.3,M,47.1,M,,0000*4B
$GNGGA,162943.00,4529.82534,N,00911.08334,E,2,08,1.35,145.2,M,47.1,M,,0000*42
$GNGGA,162944.00,4529.82529,N,00911.08339,E,2,08,2.22,145.1,M,47.1,M,,0000*42
$GNGGA,162945.00,4529.82518,N,00911.08350,E,2,08,2.22,145.1,M,47.1,M,,0000*4E
$GNGGA,162946.00,4529.82512,N,00911.08353,E,2,08,1.35,145.1,M,47.1,M,,0000*41
$GNGGA,162947.00,4529.82505,N,00911.08357,E,2,08,1.71,145.2,M,47.1,M,,0000*41
$GNGGA,162948.00,4529.82508,N,00911.08349,E,2,08,2.22,145.1,M,47.1,M,,0000*4A
$GNGGA,162949.00,4529.82508,N,00911.08344,E,2,08,1.50,145.1,M,47.1,M,,0000*40
$GNGGA,162950.00,4529.82500,N,00911.08347,E,2,08,2.22,145.1,M,47.1,M,,0000*45
$GNGGA,162951.00,4529.82494,N,00911.08350,E,2,08,1.71,145.0,M,47.1,M,,0000*4A
$GNGGA,162952.00,4529.82496,N,00911.08344,E,2,08,1.35,144.9,M,47.1,M,,0000*46
$GNGGA,162953.00,4529.82505,N,00911.08331,E,2,08,1.35,144.8,M,47.1,M,,0000*4F
$GNGGA,162954.00,4529.82502,N,00911.08331,E,2,08,1.70,144.8,M,47.1,M,,0000*4E
$GNGGA,162955.00,4529.82500,N,00911.08332,E,2,08,1.70,144.8,M,47.1,M,,0000*4E
$GNGGA,162956.00,4529.82495,N,00911.08337,E,2,08,1.70,144.9,M,47.1,M,,0000*44
$GNGGA,162957.00,4529.82486,N,00911.08346,E,2,08,1.70,145.0,M,47.1,M,,0000*49
$GNGGA,162958.00,4529.82475,N,00911.08360,E,2,08,1.35,145.0,M,47.1,M,,0000*4F
$GNGGA,162959.00,4529.82463,N,00911.08373,E,2,08,1.35,145.2,M,47.1,M,,0000*49
$GNGGA,163000.00,4529.82453,N,00911.08388,E,2,08,2.21,145.4,M,47.1,M,,0000*4A
$GNGGA,163001.00,4529.82443,N,00911.08402,E,2,08,1.70,145.5,M,47.1,M,,0000*49
$GNGGA,163002.00,4529.82430,N,00911.08418,E,2,08,1.50,145.7,M,47.1,M,,0000*45
$GNGGA,163003.00,4529.82426,N,00911.08425,E,2,08,2.21,145.8,M,47.1,M,,0000*47
$GNGGA,163004.00,4529.82415,N,00911.08438,E,2,08,1.35,145.9,M,47.1,M,,0000*4B
$GNGGA,163005.00,4529.82422,N,00911.08429,E,2,08,1.70,146.0,M,47.1,M,,0000*45
$GNGGA,163006.00,4529.82423,N,00911.08426,E,2,08,1.70,146.0,M,47.1,M,,0000*48
$GNGGA,163007.00,4529.82423,N,00911.08426,E,2,08,1.35,146.1,M,47.1,M,,0000*49
$GNGGA,163008.00,4529.82414,N,00911.08435,E,2,08,1.50,146.3,M,47.1,M,,0000*41
$GNGGA,163009.00,4529.82410,N,00911.08442,E,2,08,2.21,146.4,M,47.1,M,,0000*46
$GNGGA,163010.00,4529.82402,N,00911.08453,E,2,08,2.21,146.6,M,47.1,M,,0000*4F
$GNGGA,163011.00,4529.82388,N,00911.08469,E,2,08,2.21,146.9,M,47.1,M,,0000*4D
$GNGGA,163012.00,4529.82373,N,00911.08485,E,2,08,2.21,147.1,M,47.1,M,,0000*41
$GNGGA,163013.00,4529.82352,N,00911.08508,E,2,08,2.20,147.4,M,47.1,M,,0000*43
$GNGGA,163014.00,4529.82332,N,00911.08529,E,2,08,2.20,147.7,M,47.1,M,,0000*42
$GNGGA,163015.00,4529.82318,N,00911.08545,E,2,08,2.20,147.9,M,47.1,M,,0000*4F
$GNGGA,163016.00,4529.82302,N,00911.08563,E,2,08,2.20,148.1,M,47.1,M,,0000*44
$GNGGA,163017.00,4529.82303,N,00911.08558,E,2,08,2.20,148.4,M,47.1,M,,0000*49
$GNGGA,163018.00,4529.82294,N,00911.08568,E,2,08,2.20,148.6,M,47.1,M,,0000*48
$GNGGA,163019.00,4529.82289,N,00911.08575,E,2,08,1.50,148.8,M,47.1,M,,0000*43
$GNGGA,163020.00,4529.82284,N,00911.08585,E,2,08,1.50,148.9,M,47.1,M,,0000*4A
$GNGGA,163021.00,4529.82284,N,00911.08590,E,2,08,2.20,149.0,M,47.1,M,,0000*43
$GNGGA,163022.00,4529.82289,N,00911.08590,E,2,08,1.69,149.0,M,47.1,M,,0000*43
$GNGGA,163023.00,4529.82297,N,00911.08586,E,2,08,1.69,149.1,M,47.1,M,,0000*4B
$GNGGA,163024.00,4529.82298,N,00911.08589,E,2,08,2.20,149.1,M,47.1,M,,0000*42
$GNGGA,163025.00,4529.82301,N,00911.08590,E,2,08,2.20,149.1,M,47.1,M,,0000*4A
$GNGGA,163026.00,4529.82311,N,00911.08580,E,2,08,1.69,149.0,M,47.1,M,,0000*46
$GNGGA,163027.00,4529.82315,N,00911.08578,E,2,08,2.20,149.1,M,47.1,M,,0000*4B
$GNGGA,163028.00,4529.82326,N,00911.08565,E,2,08,1.69,149.0,M,47.1,M,,0000*47
$GNGGA,163029.00,4529.82328,N,00911.08562,E,2,08,1.69,149.0,M,47.1,M,,0000*4F
$GNGGA,163030.00,4529.82326,N,00911.08565,E,2,08,2.20,148.9,M,47.1,M,,0000*48
$GNGGA,163031.00,4529.82327,N,00911.08561,E,2,08,1.69,148.7,M,47.1,M,,0000*4C
$GNGGA,163032.00,4529.82335,N,00911.08549,E,2,08,2.19,148.6,M,47.1,M,,0000*43
$GNGGA,163033.00,4529.82341,N,00911.08541,E,2,08,2.19,148.5,M,47.1,M,,0000*4A
$GNGGA,163034.00,4529.82344,N,00911.08536,E,2,08,1.69,148.4,M,47.1,M,,0000*4D
$GNGGA,163035.00,4529.82349,N,00911.08528,E,2,08,2.19,148.4,M,47.1,M,,0000*4A
$GNGGA,163036.00,4529.82360,N,00911.08514,E,2,08,2.19,148.2,M,47.1,M,,0000*4B
$GNGGA,163037.00,4529.82367,N,00911.08507,E,2,08,2.19,148.1,M,47.1,M,,0000*4C
$GNGGA,163038.00,4529.82377,N,00911.08497,E,2,08,1.69,147.9,M,47.1,M,,0000*49
$GNGGA,163039.00,4529.82386,N,00911.08487,E,2,08,2.19,147.7,M,47.1,M,,0000*4D
$GNGGA,163040.00,4529.82406,N,00911.08463,E,2,08,1.69,147.5,M,47.1,M,,0000*40
$GNGGA,163041.00,4529.82418,N,00911.08450,E,2,08,1.69,147.3,M,47.1,M,,0000*48
$GNGGA,163042.00,4529.82426,N,00911.08439,E,2,08,1.69,147.1,M,47.1,M,,0000*4B
$GNGGA,163043.00,4529.82427,N,00911.08435,E,2,08,1.69,147.0,M,47.1,M,,0000*46
$GNGGA,163044.00,4529.82422,N,00911.08444,E,2,08,1.69,147.0,M,47.1,M,,0000*42
$GNGGA,163045.00,4529.82413,N,00911.08455,E,2,08,1.69,147.1,M,47.1,M,,0000*40
$GNGGA,163046.00,4529.82407,N,00911.08461,E,2,08,1.69,147.1,M,47.1,M,,0000*41
$GNGGA,163047.00,4529.82401,N,00911.08466,E,2,08,1.69,147.1,M,47.1,M,,0000*41
$GNGGA,163048.00,4529.82394,N,00911.08474,E,2,08,2.19,147.1,M,47.1,M,,0000*42
$GNGGA,163049.00,4529.82378,N,00911.08492,E,2,08,1.50,147.2,M,47.1,M,,0000*44
$GNGGA,163050.00,4529.82370,N,00911.08499,E,2,08,1.68,147.2,M,47.1,M,,0000*44
$GNGGA,163051.00,4529.82368,N,00911.08499,E,2,08,1.50,147.3,M,47.1,M,,0000*46
$GNGGA,163052.00,4529.82365,N,00911.08504,E,2,08,1.68,147.4,M,47.1,M,,0000*41
$GNGGA,163053.00,4529.82369,N,00911.08502,E,2,08,1.34,147.5,M,47.1,M,,0000*42
$GNGGA,163054.00,4529.82375,N,00911.08499,E,2,08,1.68,147.5,M,47.1,M,,0000*42
$GNGGA,163055.00,4529.82378,N,00911.08498,E,2,08,1.34,147.6,M,47.1,M,,0000*45
$GNGGA,163056.00,4529.82380,N,00911.08498,E,2,08,1.34,147.7,M,47.1,M,,0000*40
$GNGGA,163057.00,4529.82383,N,00911.08497,E,2,08,1.68,147.8,M,47.1,M,,0000*4B
$GNGGA,163058.00,4529.82375,N,00911.08507,E,2,08,1.34,147.9,M,47.1,M,,0000*4D
$GNGGA,163059.00,4529.82374,N,00911.08509,E,2,08,1.34,148.0,M,47.1,M,,0000*45
$GNGGA,163100.00,4529.82368,N,00911.08516,E,2,08,1.50,148.0,M,47.1,M,,0000*49
$GNGGA,163101.00,4529.82361,N,00911.08522,E,2,08,1.50,148.1,M,47.1,M,,0000*47
$GNGGA,163102.00,4529.82352,N,00911.08532,E,2,08,1.34,148.2,M,47.1,M,,0000*44
$GNGGA,163103.00,4529.82348,N,00911.08539,E,2,08,1.34,148.2,M,47.1,M,,0000*45
$GNGGA,163104.00,4529.82342,N,00911.08547,E,2,08,1.34,148.3,M,47.1,M,,0000*40
$GNGGA,163105.00,4529.82333,N,00911.08557,E,2,08,1.34,148.5,M,47.1,M,,0000*40
$GNGGA,163106.00,4529.82323,N,00911.08570,E,2,08,1.34,148.6,M,47.1,M,,0000*44
$GNGGA,163107.00,4529.82318,N,00911.08575,E,2,08,1.68,148.7,M,47.1,M,,0000*40
$GNGGA,163108.00,4529.82310,N,00911.08584,E,2,08,1.68,148.7,M,47.1,M,,0000*49
$GNGGA,163109.00,4529.82307,N,00911.08590,E,2,08,1.68,148.9,M,47.1,M,,0000*45
$GNGGA,163110.00,4529.82303,N,00911.08597,E,2,08,1.34,149.0,M,47.1,M,,0000*4F
$GNGGA,163111.00,4529.82300,N,00911.08602,E,2,08,1.34,149.1,M,47.1,M,,0000*43
$GNGGA,163112.00,4529.82309,N,00911.08590,E,2,08,1.68,149.0,M,47.1,M,,0000*49
$GNGGA,163113.00,4529.82322,N,00911.08580,E,2,08,1.34,148.8,M,47.1,M,,0000*40
$GNGGA,163114.00,4529.82314,N,00911.08588,E,2,08,1.34,148.8,M,47.1,M,,0000*4A
$GNGGA,163115.00,4529.82304,N,00911.08602,E,2,08,1.68,149.0,M,47.1,M,,0000*4B
$GNGGA,163116.00,4529.82295,N,00911.08614,E,2,08,1.34,149.1,M,47.1,M,,0000*4E
$GNGGA,163117.00,4529.82293,N,00911.08618,E,2,08,1.34,149.2,M,47.1,M,,0000*46
$GNGGA,163118.00,4529.82290,N,00911.08625,E,2,08,1.34,149.2,M,47.1,M,,0000*44
$GNGGA,163119.00,4529.82291,N,00911.08624,E,2,08,1.34,149.2,M,47.1,M,,0000*45
$GNGGA,163120.00,4529.82290,N,00911.08628,E,2,08,1.34,149.2,M,47.1,M,,0000*42
$GNGGA,163121.00,4529.82292,N,00911.08626,E,2,08,1.34,149.1,M,47.1,M,,0000*4C
$GNGGA,163122.00,4529.82311,N,00911.08609,E,2,08,1.34,148.6,M,47.1,M,,0000*4E
$GNGGA,163123.00,4529.82322,N,00911.08599,E,2,08,1.34,148.3,M,47.1,M,,0000*40
$GNGGA,163124.00,4529.82334,N,00911.08583,E,2,08,1.67,148.0,M,47.1,M,,0000*4E
$GNGGA,163125.00,4529.82338,N,00911.08580,E,2,08,1.67,147.8,M,47.1,M,,0000*47
$GNGGA,163126.00,4529.82345,N,00911.08571,E,2,08,1.34,147.5,M,47.1,M,,0000*4B
$GNGGA,163127.00,4529.82351,N,00911.08567,E,2,08,1.50,147.4,M,47.1,M,,0000*4B
$GNGGA,163128.00,4529.82358,N,00911.08562,E,2,08,1.50,147.2,M,47.1,M,,0000*4E
$GNGGA,163129.00,4529.82371,N,00911.08552,E,2,08,1.34,147.1,M,47.1,M,,0000*46
$GNGGA,163130.00,4529.82379,N,00911.08549,E,2,08,1.34,147.0,M,47.1,M,,0000*4D
$GNGGA,163131.00,4529.82387,N,00911.08544,E,2,08,1.67,146.8,M,47.1,M,,0000*4F
$GNGGA,163132.00,4529.82390,N,00911.08541,E,2,08,1.67,146.7,M,47.1,M,,0000*40
$GNGGA,163133.00,4529.82396,N,00911.08537,E,2,08,2.16,146.5,M,47.1,M,,0000*41
$GNGGA,163134.00,4529.82399,N,00911.08536,E,2,08,2.16,146.3,M,47.1,M,,0000*4E
$GNGGA,163135.00,4529.82410,N,00911.08521,E,2,08,1.67,146.2,M,47.1,M,,0000*4B
$GNGGA,163136.00,4529.82412,N,00911.08523,E,2,07,1.74,145.9,M,47.1,M,,0000*4D
$GNGGA,163137.00,4529.82419,N,00911.08521,E,2,08,1.67,145.7,M,47.1,M,,0000*46
$GNGGA,163138.00,4529.82426,N,00911.08515,E,2,08,1.67,145.5,M,47.1,M,,0000*40
$GNGGA,163139.00,4529.82431,N,00911.08517,E,2,08,3.12,145.4,M,47.1,M,,0000*44
$GNGGA,163140.00,4529.82437,N,00911.08519,E,2,08,2.16,145.2,M,47.1,M,,0000*41
$GNGGA,163141.00,4529.82443,N,00911.08523,E,2,08,1.67,145.1,M,47.1,M,,0000*4C
$GNGGA,163142.00,4529.82449,N,00911.08526,E,2,08,1.74,144.9,M,47.1,M,,0000*4B
$GNGGA,163143.00,4529.82461,N,00911.08522,E,2,08,1.67,144.7,M,47.1,M,,0000*48
$GNGGA,163144.00,4529.82467,N,00911.08523,E,2,08,1.66,144.5,M,47.1,M,,0000*4B
$GNGGA,163145.00,4529.82465,N,00911.08531,E,2,08,1.66,144.5,M,47.1,M,,0000*4B
$GNGGA,163146.00,4529.82481,N,00911.08507,E,2,08,1.66,144.5,M,47.1,M,,0000*47
$GNGGA,163147.00,4529.82476,N,00911.08506,E,2,08,1.66,144.6,M,47.1,M,,0000*4C
$GNGGA,163148.00,4529.82474,N,00911.08506,E,2,08,2.15,144.5,M,47.1,M,,0000*45
$GNGGA,163149.00,4529.82465,N,00911.08512,E,2,08,2.15,144.6,M,47.1,M,,0000*42
$GNGGA,163150.00,4529.82451,N,00911.08531,E,2,08,2.15,144.6,M,47.1,M,,0000*4C
$GNGGA,163151.00,4529.82445,N,00911.08540,E,2,08,3.12,144.6,M,47.1,M,,0000*48
$GNGGA,163152.00,4529.82434,N,00911.08552,E,2,08,1.66,144.6,M,47.1,M,,0000*4F
$GNGGA,163153.00,4529.82433,N,00911.08554,E,2,08,1.66,144.5,M,47.1,M,,0000*4C
$GNGGA,163154.00,4529.82424,N,00911.08558,E,2,08,1.66,144.6,M,47.1,M,,0000*42
$GNGGA,163155.00,4529.82418,N,00911.08561,E,2,08,1.34,144.8,M,47.1,M,,0000*4F
$GNGGA,163156.00,4529.82415,N,00911.08564,E,2,08,1.34,145.0,M,47.1,M,,0000*4D
$GNGGA,163157.00,4529.82410,N,00911.08564,E,2,07,1.43,145.1,M,47.1,M,,0000*47
$GNGGA,163158.00,4529.82428,N,00911.08538,E,2,07,1.43,145.1,M,47.1,M,,0000*4A
$GNGGA,163159.00,4529.82417,N,00911.08549,E,2,08,1.97,145.3,M,47.1,M,,0000*45
$GNGGA,163200.00,4529.82407,N,00911.08558,E,2,07,1.97,145.5,M,47.1,M,,0000*42
$GNGGA,163201.00,4529.82398,N,00911.08566,E,2,08,1.43,145.6,M,47.1,M,,0000*4A
$GNGGA,163202.00,4529.82385,N,00911.08579,E,2,08,1.43,145.8,M,47.1,M,,0000*45
$GNGGA,163203.00,4529.82374,N,00911.08591,E,2,08,1.66,146.0,M,47.1,M,,0000*40
$GNGGA,163204.00,4529.82361,N,00911.08604,E,2,08,1.34,146.2,M,47.1,M,,0000*49
$GNGGA,163205.00,4529.82348,N,00911.08615,E,2,08,1.34,146.3,M,47.1,M,,0000*42
$GNGGA,163206.00,4529.82337,N,00911.08624,E,2,08,1.50,146.4,M,47.1,M,,0000*4E
$GNGGA,163207.00,4529.82327,N,00911.08632,E,2,08,1.50,146.5,M,47.1,M,,0000*48
$GNGGA,163208.00,4529.82316,N,00911.08642,E,2,08,1.34,146.6,M,47.1,M,,0000*43
$GNGGA,163209.00,4529.82319,N,00911.08633,E,2,08,1.50,146.6,M,47.1,M,,0000*49
$GNGGA,163210.00,4529.82312,N,00911.08640,E,2,08,1.34,146.6,M,47.1,M,,0000*4C
$GNGGA,163211.00,4529.82311,N,00911.08643,E,2,08,1.34,146.7,M,47.1,M,,0000*4C
$GNGGA,163212.00,4529.82316,N,00911.08638,E,2,08,1.50,146.8,M,47.1,M,,0000*49
$GNGGA,163213.00,4529.82312,N,00911.08643,E,2,08,1.34,146.9,M,47.1,M,,0000*43
$GNGGA,163214.00,4529.82319,N,00911.08635,E,2,08,1.34,147.0,M,47.1,M,,0000*46
$GNGGA,163215.00,4529.82327,N,00911.08625,E,2,08,1.50,147.0,M,47.1,M,,0000*49
$GNGGA,163216.00,4529.82330,N,00911.08621,E,2,08,1.50,147.1,M,47.1,M,,0000*49
$GNGGA,163217.00,4529.82338,N,00911.08611,E,2,08,1.50,147.2,M,47.1,M,,0000*40
$GNGGA,163218.00,4529.82337,N,00911.08613,E,2,08,2.14,147.4,M,47.1,M,,0000*47
$GNGGA,163219.00,4529.82334,N,00911.08615,E,2,08,1.50,147.6,M,47.1,M,,0000*42
$GNGGA,163220.00,4529.82345,N,00911.08599,E,2,08,1.50,147.5,M,47.1,M,,0000*4A
$GNGGA,163221.00,4529.82343,N,00911.08598,E,2,08,1.34,147.7,M,47.1,M,,0000*4C
$GNGGA,163222.00,4529.82344,N,00911.08592,E,2,08,1.34,147.7,M,47.1,M,,0000*42
$GNGGA,163223.00,4529.82344,N,00911.08587,E,2,08,1.34,147.7,M,47.1,M,,0000*47
$GNGGA,163224.00,4529.82341,N,00911.08587,E,2,08,1.50,147.7,M,47.1,M,,0000*47
$GNGGA,163225.00,4529.82343,N,00911.08580,E,2,08,1.34,147.7,M,47.1,M,,0000*41
$GNGGA,163226.00,4529.82337,N,00911.08582,E,2,08,1.34,147.8,M,47.1,M,,0000*4C
$GNGGA,163227.00,4529.82337,N,00911.08579,E,2,08,1.34,147.8,M,47.1,M,,0000*49
$GNGGA,163228.00,4529.82340,N,00911.08572,E,2,08,1.34,147.8,M,47.1,M,,0000*4D
$GNGGA,163229.00,4529.82343,N,00911.08565,E,2,08,1.34,147.9,M,47.1,M,,0000*48
$GNGGA,163230.00,4529.82354,N,00911.08551,E,2,08,1.34,147.9,M,47.1,M,,0000*41
$GNGGA,163231.00,4529.82368,N,00911.08535,E,2,08,1.34,147.9,M,47.1,M,,0000*4D
$GNGGA,163232.00,4529.82398,N,00911.08503,E,2,08,1.34,147.7,M,47.1,M,,0000*4A
$GNGGA,163233.00,4529.82414,N,00911.08483,E,2,08,1.34,147.6,M,47.1,M,,0000*40
$GNGGA,163234.00,4529.82422,N,00911.08471,E,2,08,1.34,147.6,M,47.1,M,,0000*4F
$GNGGA,163235.00,4529.82425,N,00911.08464,E,2,08,1.65,147.6,M,47.1,M,,0000*49
$GNGGA,163236.00,4529.82421,N,00911.08462,E,2,08,1.65,147.7,M,47.1,M,,0000*49
$GNGGA,163237.00,4529.82423,N,00911.08455,E,2,08,1.65,147.7,M,47.1,M,,0000*4E
$GNGGA,163238.00,4529.82426,N,00911.08448,E,2,08,1.65,147.6,M,47.1,M,,0000*49
$GNGGA,163239.00,4529.82433,N,00911.08437,E,2,08,1.64,147.6,M,47.1,M,,0000*45
$GNGGA,163240.00,4529.82442,N,00911.08425,E,2,08,1.64,147.5,M,47.1,M,,0000*4D
$GNGGA,163241.00,4529.82446,N,00911.08418,E,2,08,1.64,147.5,M,47.1,M,,0000*46
$GNGGA,163242.00,4529.82450,N,00911.08413,E,2,08,1.64,147.5,M,47.1,M,,0000*49
$GNGGA,163243.00,4529.82468,N,00911.08395,E,2,08,1.64,147.2,M,47.1,M,,0000*4D
$GNGGA,163244.00,4529.82471,N,00911.08390,E,2,08,1.64,147.2,M,47.1,M,,0000*47
$GNGGA,163245.00,4529.82472,N,00911.08388,E,2,08,1.64,147.2,M,47.1,M,,0000*4C
$GNGGA,163246.00,4529.82473,N,00911.08385,E,2,08,1.64,147.3,M,47.1,M,,0000*42
$GNGGA,163247.00,4529.82479,N,00911.08380,E,2,08,1.64,147.3,M,47.1,M,,0000*4C
$GNGGA,163248.00,4529.82480,N,00911.08381,E,2,08,2.12,147.3,M,47.1,M,,0000*46
$GNGGA,163249.00,4529.82483,N,00911.08380,E,2,08,2.12,147.2,M,47.1,M,,0000*44
$GNGGA,163250.00,4529.82483,N,00911.08381,E,2,08,1.64,147.3,M,47.1,M,,0000*4E
$GNGGA,163251.00,4529.82488,N,00911.08377,E,2,08,1.64,147.3,M,47.1,M,,0000*4D
$GNGGA,163252.00,4529.82493,N,00911.08374,E,2,08,1.64,147.3,M,47.1,M,,0000*47
$GNGGA,163253.00,4529.82497,N,00911.08368,E,2,08,1.64,147.3,M,47.1,M,,0000*4F
$GNGGA,163254.00,4529.82499,N,00911.08365,E,2,08,1.64,147.4,M,47.1,M,,0000*4C
$GNGGA,163255.00,4529.82510,N,00911.08353,E,2,08,1.64,147.4,M,47.1,M,,0000*48
$GNGGA,163256.00,4529.82506,N,00911.08357,E,2,08,1.64,147.5,M,47.1,M,,0000*49
$GNGGA,163257.00,4529.82511,N,00911.08357,E,2,08,1.64,147.5,M,47.1,M,,0000*4E
$GNGGA,163258.00,4529.82514,N,00911.08360,E,2,08,1.64,147.5,M,47.1,M,,0000*40
$GNGGA,163259.00,4529.82522,N,00911.08356,E,2,08,1.64,147.4,M,47.1,M,,0000*40
$GNGGA,163300.00,4529.82522,N,00911.08361,E,2,08,1.64,147.4,M,47.1,M,,0000*49
$GNGGA,163301.00,4529.82529,N,00911.08358,E,2,08,2.11,147.3,M,47.1,M,,0000*4F
$GNGGA,163302.00,4529.82530,N,00911.08363,E,2,08,2.11,147.2,M,47.1,M,,0000*4D
$GNGGA,163303.00,4529.82532,N,00911.08364,E,2,08,1.64,147.1,M,47.1,M,,0000*4B
$GNGGA,163304.00,4529.82532,N,00911.08368,E,2,08,1.64,147.1,M,47.1,M,,0000*40
$GNGGA,163305.00,4529.82536,N,00911.08367,E,2,08,1.34,147.0,M,47.1,M,,0000*4E
$GNGGA,163306.00,4529.82539,N,00911.08368,E,2,08,1.34,146.9,M,47.1,M,,0000*45
$GNGGA,163307.00,4529.82545,N,00911.08357,E,2,08,3.13,147.0,M,47.1,M,,0000*4C
$GNGGA,163308.00,4529.82534,N,00911.08370,E,2,08,1.63,147.1,M,47.1,M,,0000*44
$GNGGA,163309.00,4529.82523,N,00911.08381,E,2,08,1.63,147.1,M,47.1,M,,0000*4D
$GNGGA,163310.00,4529.82512,N,00911.08395,E,2,08,1.63,147.1,M,47.1,M,,0000*42
$GNGGA,163311.00,4529.82500,N,00911.08409,E,2,08,1.63,147.1,M,47.1,M,,0000*42
$GNGGA,163312.00,4529.82486,N,00911.08426,E,2,08,1.63,147.1,M,47.1,M,,0000*43
$GNGGA,163313.00,4529.82481,N,00911.08431,E,2,08,1.63,147.1,M,47.1,M,,0000*43
$GNGGA,163314.00,4529.82474,N,00911.08439,E,2,08,1.63,147.1,M,47.1,M,,0000*46
$GNGGA,163315.00,4529.82470,N,00911.08442,E,2,08,1.63,147.2,M,47.1,M,,0000*4C
$GNGGA,163316.00,4529.82464,N,00911.08449,E,2,08,1.63,147.3,M,47.1,M,,0000*40
$GNGGA,163317.00,4529.82461,N,00911.08450,E,2,08,1.63,147.3,M,47.1,M,,0000*4C
$GNGGA,163318.00,4529.82471,N,00911.08438,E,2,08,1.63,147.4,M,47.1,M,,0000*4B
$GNGGA,163319.00,4529.82471,N,00911.08437,E,2,08,1.63,147.4,M,47.1,M,,0000*45
$GNGGA,163320.00,4529.82475,N,00911.08431,E,2,08,1.63,147.4,M,47.1,M,,0000*4D
$GNGGA,163321.00,4529.82473,N,00911.08433,E,2,08,1.63,147.4,M,47.1,M,,0000*48
$GNGGA,163322.00,4529.82480,N,00911.08426,E,2,08,1.63,147.4,M,47.1,M,,0000*43
$GNGGA,163323.00,4529.82482,N,00911.08425,E,2,08,1.63,147.4,M,47.1,M,,0000*43
$GNGGA,163324.00,4529.82486,N,00911.08423,E,2,08,1.63,147.4,M,47.1,M,,0000*46
$GNGGA,163325.00,4529.82486,N,00911.08424,E,2,08,1.63,147.5,M,47.1,M,,0000*41
$GNGGA,163326.00,4529.82479,N,00911.08431,E,2,08,1.63,147.5,M,47.1,M,,0000*46
$GNGGA,163327.00,4529.82468,N,00911.08444,E,2,08,1.63,147.6,M,47.1,M,,0000*46
$GNGGA,163328.00,4529.82462,N,00911.08450,E,2,08,1.63,147.6,M,47.1,M,,0000*46
$GNGGA,163329.00,4529.82461,N,00911.08449,E,2,08,1.63,147.7,M,47.1,M,,0000*4D
$GNGGA,163330.00,4529.82454,N,00911.08454,E,2,08,1.63,147.7,M,47.1,M,,0000*4F
$GNGGA,163331.00,4529.82449,N,00911.08458,E,2,08,1.63,147.7,M,47.1,M,,0000*4E
$GNGGA,163332.00,4529.82447,N,00911.08460,E,2,08,1.63,147.7,M,47.1,M,,0000*48
$GNGGA,163333.00,4529.82444,N,00911.08464,E,2,08,1.63,147.7,M,47.1,M,,0000*4E
$GNGGA,163334.00,4529.82442,N,00911.08466,E,2,08,2.10,147.8,M,47.1,M,,0000*45
$GNGGA,163335.00,4529.82443,N,00911.08464,E,2,08,1.63,147.8,M,47.1,M,,0000*40
$GNGGA,163336.00,4529.82443,N,00911.08464,E,2,08,1.62,147.8,M,47.1,M,,0000*42
$GNGGA,163337.00,4529.82444,N,00911.08464,E,2,08,2.09,147.9,M,47.1,M,,0000*4B
$GNGGA,163338.00,4529.82441,N,00911.08468,E,2,08,2.09,148.0,M,47.1,M,,0000*4B
$GNGGA,163339.00,4529.82435,N,00911.08476,E,2,08,1.62,148.2,M,47.1,M,,0000*4A
$GNGGA,163340.00,4529.82422,N,00911.08488,E,2,08,1.62,148.3,M,47.1,M,,0000*42
$GNGGA,163341.00,4529.82416,N,00911.08491,E,2,08,1.62,148.4,M,47.1,M,,0000*4B
$GNGGA,163342.00,4529.82406,N,00911.08501,E,2,08,1.62,148.5,M,47.1,M,,0000*40
$GNGGA,163343.00,4529.82401,N,00911.08506,E,2,08,1.62,148.5,M,47.1,M,,0000*41
$GNGGA,163344.00,4529.82391,N,00911.08516,E,2,08,1.62,148.6,M,47.1,M,,0000*4A
$GNGGA,163345.00,4529.82379,N,00911.08527,E,2,08,1.62,148.7,M,47.1,M,,0000*4E
$GNGGA,163346.00,4529.82371,N,00911.08535,E,2,08,1.62,148.8,M,47.1,M,,0000*49
$GNGGA,163347.00,4529.82355,N,00911.08553,E,2,08,1.62,148.9,M,47.1,M,,0000*4F
$GNGGA,163348.00,4529.82337,N,00911.08571,E,2,08,1.62,149.1,M,47.1,M,,0000*4D
$GNGGA,163349.00,4529.82329,N,00911.08576,E,2,08,1.62,149.1,M,47.1,M,,0000*44
$GNGGA,163350.00,4529.82318,N,00911.08588,E,2,08,1.62,149.2,M,47.1,M,,0000*4C
$GNGGA,163351.00,4529.82302,N,00911.08604,E,2,08,1.62,149.4,M,47.1,M,,0000*47
$GNGGA,163352.00,4529.82291,N,00911.08618,E,2,08,1.62,149.5,M,47.1,M,,0000*43
$GNGGA,163353.00,4529.82295,N,00911.08614,E,2,08,1.62,149.4,M,47.1,M,,0000*4B
$GNGGA,163354.00,4529.82290,N,00911.08623,E,2,08,1.62,149.5,M,47.1,M,,0000*4C
$GNGGA,163355.00,4529.82284,N,00911.08634,E,2,08,1.62,149.5,M,47.1,M,,0000*4E
$GNGGA,163356.00,4529.82276,N,00911.08645,E,2,08,1.62,149.7,M,47.1,M,,0000*44
$GNGGA,163357.00,4529.82267,N,00911.08657,E,2,08,1.62,149.8,M,47.1,M,,0000*49
$GNGGA,163358.00,4529.82255,N,00911.08672,E,2,08,1.33,150.0,M,47.1,M,,0000*44
$GNGGA,163359.00,4529.82248,N,00911.08682,E,2,08,1.33,150.1,M,47.1,M,,0000*47
$GNGGA,163400.00,4529.82237,N,00911.08696,E,2,08,1.33,150.3,M,47.1,M,,0000*43
$GNGGA,163401.00,4529.82229,N,00911.08706,E,2,08,1.50,150.3,M,47.1,M,,0000*40
$GNGGA,163402.00,4529.82224,N,00911.08714,E,2,08,1.50,150.4,M,47.1,M,,0000*4A
$GNGGA,163403.00,4529.82222,N,00911.08715,E,2,08,1.33,150.4,M,47.1,M,,0000*49
$GNGGA,163404.00,4529.82218,N,00911.08721,E,2,08,1.61,150.4,M,47.1,M,,0000*47
$GNGGA,163405.00,4529.82221,N,00911.08718,E,2,08,1.61,150.4,M,47.1,M,,0000*46
$GNGGA,163406.00,4529.82236,N,00911.08705,E,2,08,1.33,150.3,M,47.1,M,,0000*4F
$GNGGA,163407.00,4529.82239,N,00911.08703,E,2,08,1.33,150.2,M,47.1,M,,0000*46
$GNGGA,163408.00,4529.82248,N,00911.08695,E,2,08,1.33,150.2,M,47.1,M,,0000*41
$GNGGA,163409.00,4529.82259,N,00911.08681,E,2,08,1.33,150.0,M,47.1,M,,0000*47
$GNGGA,163410.00,4529.82273,N,00911.08666,E,2,08,1.33,149.9,M,47.1,M,,0000*4F
$GNGGA,163411.00,4529.82282,N,00911.08656,E,2,08,1.33,149.8,M,47.1,M,,0000*42
$GNGGA,163412.00,4529.82294,N,00911.08643,E,2,08,1.33,149.6,M,47.1,M,,0000*4C
$GNGGA,163413.00,4529.82311,N,00911.08625,E,2,08,1.50,149.4,M,47.1,M,,0000*46
$GNGGA,163414.00,4529.82324,N,00911.08610,E,2,08,1.50,149.3,M,47.1,M,,0000*46
$GNGGA,163415.00,4529.82330,N,00911.08602,E,2,08,1.33,149.2,M,47.1,M,,0000*45
$GNGGA,163416.00,4529.82337,N,00911.08592,E,2,08,1.33,149.1,M,47.1,M,,0000*48
$GNGGA,163417.00,4529.82347,N,00911.08578,E,2,08,1.50,149.0,M,47.1,M,,0000*4E
$GNGGA,163418.00,4529.82352,N,00911.08571,E,2,08,1.50,149.0,M,47.1,M,,0000*4C
$GNGGA,163419.00,4529.82361,N,00911.08557,E,2,08,1.33,148.9,M,47.1,M,,0000*44
$GNGGA,163420.00,4529.82366,N,00911.08550,E,2,08,1.33,148.9,M,47.1,M,,0000*4E
$GNGGA,163421.00,4529.82379,N,00911.08531,E,2,08,1.50,148.8,M,47.1,M,,0000*42
$GNGGA,163422.00,4529.82392,N,00911.08513,E,2,08,1.33,148.7,M,47.1,M,,0000*4E
$GNGGA,163423.00,4529.82416,N,00911.08484,E,2,08,1.33,148.6,M,47.1,M,,0000*4A
$GNGGA,163424.00,4529.82439,N,00911.08457,E,2,08,1.33,148.6,M,47.1,M,,0000*4E
$GNGGA,163425.00,4529.82455,N,00911.08436,E,2,08,1.61,148.5,M,47.1,M,,0000*46
$GNGGA,163426.00,4529.82476,N,00911.08412,E,2,08,1.61,148.5,M,47.1,M,,0000*42
$GNGGA,163427.00,4529.82500,N,00911.08384,E,2,08,1.61,148.3,M,47.1,M,,0000*4D
$GNGGA,163428.00,4529.82524,N,00911.08357,E,2,08,1.61,148.2,M,47.1,M,,0000*4B
$GNGGA,163429.00,4529.82545,N,00911.08335,E,2,08,2.07,148.0,M,47.1,M,,0000*48
$GNGGA,163430.00,4529.82564,N,00911.08313,E,2,08,2.07,147.9,M,47.1,M,,0000*41
$GNGGA,163431.00,4529.82578,N,00911.08296,E,2,08,1.61,147.7,M,47.1,M,,0000*4C
$GNGGA,163432.00,4529.82590,N,00911.08280,E,2,08,1.61,147.6,M,47.1,M,,0000*4F
$GNGGA,163433.00,4529.82596,N,00911.08273,E,2,08,1.33,147.6,M,47.1,M,,0000*43
$GNGGA,163434.00,4529.82604,N,00911.08266,E,2,08,1.33,147.5,M,47.1,M,,0000*4B
$GNGGA,163435.00,4529.82607,N,00911.08262,E,2,08,1.33,147.4,M,47.1,M,,0000*4C
$GNGGA,163436.00,4529.82607,N,00911.08259,E,2,08,1.33,147.3,M,47.1,M,,0000*40
$GNGGA,163437.00,4529.82611,N,00911.08253,E,2,08,1.60,147.2,M,47.1,M,,0000*4B
$GNGGA,163438.00,4529.82612,N,00911.08251,E,2,08,1.60,147.1,M,47.1,M,,0000*46
$GNGGA,163439.00,4529.82611,N,00911.08251,E,2,08,1.60,147.1,M,47.1,M,,0000*44
$GNGGA,163440.00,4529.82608,N,00911.08255,E,2,08,1.60,147.1,M,47.1,M,,0000*46
$GNGGA,163441.00,4529.82612,N,00911.08251,E,2,08,1.60,147.0,M,47.1,M,,0000*49
$GNGGA,163442.00,4529.82610,N,00911.08255,E,2,08,1.60,147.1,M,47.1,M,,0000*4D
$GNGGA,163443.00,4529.82609,N,00911.08258,E,2,08,1.60,147.1,M,47.1,M,,0000*49
$GNGGA,163444.00,4529.82611,N,00911.08260,E,2,08,1.60,147.1,M,47.1,M,,0000*4C
$GNGGA,163445.00,4529.82616,N,00911.08256,E,2,08,1.60,147.1,M,47.1,M,,0000*4F
$GNGGA,163446.00,4529.82622,N,00911.08248,E,2,08,1.60,147.0,M,47.1,M,,0000*45
$GNGGA,163447.00,4529.82624,N,00911.08242,E,2,08,1.60,147.0,M,47.1,M,,0000*48
$GNGGA,163448.00,4529.82615,N,00911.08255,E,2,08,1.60,147.1,M,47.1,M,,0000*42
$GNGGA,163449.00,4529.82604,N,00911.08265,E,2,08,1.60,147.2,M,47.1,M,,0000*43
$GNGGA,163450.00,4529.82587,N,00911.08285,E,2,08,1.60,147.4,M,47.1,M,,0000*4B
$GNGGA,163451.00,4529.82568,N,00911.08309,E,2,08,1.60,147.6,M,47.1,M,,0000*4C
$GNGGA,163452.00,4529.82558,N,00911.08323,E,2,08,1.50,147.6,M,47.1,M,,0000*47
$GNGGA,163453.00,4529.82542,N,00911.08343,E,2,08,2.05,147.7,M,47.1,M,,0000*49
$GNGGA,163454.00,4529.82525,N,00911.08365,E,2,08,1.50,147.8,M,47.1,M,,0000*47
$GNGGA,163455.00,4529.82503,N,00911.08392,E,2,08,1.50,147.9,M,47.1,M,,0000*4B
$GNGGA,163456.00,4529.82477,N,00911.08423,E,2,08,1.50,148.2,M,47.1,M,,0000*43
$GNGGA,163457.00,4529.82479,N,00911.08420,E,2,08,2.05,148.0,M,47.1,M,,0000*4E
$GNGGA,163458.00,4529.82471,N,00911.08432,E,2,08,2.05,148.1,M,47.1,M,,0000*4B
$GNGGA,163459.00,4529.82468,N,00911.08435,E,2,08,1.60,148.0,M,47.1,M,,0000*44
$GNGGA,163500.00,4529.82457,N,00911.08450,E,2,08,1.60,148.0,M,47.1,M,,0000*46
$GNGGA,163501.00,4529.82454,N,00911.08455,E,2,08,1.60,148.0,M,47.1,M,,0000*41
$GNGGA,163502.00,4529.82455,N,00911.08454,E,2,08,1.59,148.0,M,47.1,M,,0000*48
$GNGGA,163503.00,4529.82452,N,00911.08459,E,2,08,1.59,148.0,M,47.1,M,,0000*43
$GNGGA,163504.00,4529.82456,N,00911.08457,E,2,08,1.59,148.0,M,47.1,M,,0000*4E
$GNGGA,163505.00,4529.82458,N,00911.08458,E,2,08,1.59,148.0,M,47.1,M,,0000*4E
$GNGGA,163506.00,4529.82459,N,00911.08461,E,2,08,1.59,148.0,M,47.1,M,,0000*46
$GNGGA,163507.00,4529.82455,N,00911.08468,E,2,08,1.59,148.0,M,47.1,M,,0000*42
$GNGGA,163508.00,4529.82455,N,00911.08470,E,2,08,1.59,148.0,M,47.1,M,,0000*44
$GNGGA,163509.00,4529.82462,N,00911.08466,E,2,08,1.59,148.0,M,47.1,M,,0000*46
$GNGGA,163510.00,4529.82463,N,00911.08467,E,2,08,1.59,148.0,M,47.1,M,,0000*4E
$GNGGA,163511.00,4529.82466,N,00911.08467,E,2,08,1.59,148.0,M,47.1,M,,0000*4A
$GNGGA,163512.00,4529.82470,N,00911.08466,E,2,08,2.04,147.9,M,47.1,M,,0000*42
$GNGGA,163513.00,4529.82470,N,00911.08468,E,2,08,1.50,147.8,M,47.1,M,,0000*4E
$GNGGA,163514.00,4529.82472,N,00911.08467,E,2,08,1.59,147.7,M,47.1,M,,0000*42
$GNGGA,163515.00,4529.82477,N,00911.08461,E,2,08,1.59,147.7,M,47.1,M,,0000*40
$GNGGA,163516.00,4529.82488,N,00911.08451,E,2,08,1.59,147.5,M,47.1,M,,0000*42
$GNGGA,163517.00,4529.82505,N,00911.08432,E,2,08,1.59,147.4,M,47.1,M,,0000*43
$GNGGA,163518.00,4529.82513,N,00911.08422,E,2,08,1.59,147.3,M,47.1,M,,0000*4D
$GNGGA,163519.00,4529.82515,N,00911.08416,E,2,08,1.59,147.3,M,47.1,M,,0000*4D
$GNGGA,163520.00,4529.82529,N,00911.08400,E,2,08,1.59,147.1,M,47.1,M,,0000*4D
$GNGGA,163521.00,4529.82556,N,00911.08372,E,2,08,1.59,146.7,M,47.1,M,,0000*41
$GNGGA,163522.00,4529.82579,N,00911.08351,E,2,08,1.59,146.3,M,47.1,M,,0000*4A
$GNGGA,163523.00,4529.82591,N,00911.08338,E,2,08,1.59,146.1,M,47.1,M,,0000*40
$GNGGA,163524.00,4529.82600,N,00911.08327,E,2,08,1.59,145.9,M,47.1,M,,0000*49
$GNGGA,163525.00,4529.82605,N,00911.08320,E,2,08,1.59,145.8,M,47.1,M,,0000*4B
$GNGGA,163526.00,4529.82613,N,00911.08310,E,2,08,1.59,145.6,M,47.1,M,,0000*42
$GNGGA,163527.00,4529.82608,N,00911.08314,E,2,08,1.59,145.5,M,47.1,M,,0000*4E
$GNGGA,163528.00,4529.82606,N,00911.08314,E,2,08,1.59,145.5,M,47.1,M,,0000*4F
$GNGGA,163529.00,4529.82599,N,00911.08321,E,2,08,1.59,145.5,M,47.1,M,,0000*4D
$GNGGA,163530.00,4529.82595,N,00911.08322,E,2,08,1.33,145.5,M,47.1,M,,0000*46
$GNGGA,163531.00,4529.82591,N,00911.08325,E,2,08,1.59,145.5,M,47.1,M,,0000*48
$GNGGA,163532.00,4529.82589,N,00911.08328,E,2,08,1.58,145.5,M,47.1,M,,0000*4E
$GNGGA,163533.00,4529.82594,N,00911.08321,E,2,08,1.58,145.4,M,47.1,M,,0000*4B
$GNGGA,163534.00,4529.82609,N,00911.08305,E,2,08,1.58,145.4,M,47.1,M,,0000*4D
$GNGGA,163535.00,4529.82614,N,00911.08297,E,2,08,1.58,145.4,M,47.1,M,,0000*4A
$GNGGA,163536.00,4529.82622,N,00911.08286,E,2,08,1.58,145.4,M,47.1,M,,0000*4C
$GNGGA,163537.00,4529.82624,N,00911.08283,E,2,08,1.58,145.4,M,47.1,M,,0000*4E
$GNGGA,163538.00,4529.82624,N,00911.08282,E,2,08,1.58,145.5,M,47.1,M,,0000*41
$GNGGA,163539.00,4529.82619,N,00911.08287,E,2,08,1.58,145.5,M,47.1,M,,0000*4B
$GNGGA,163540.00,4529.82616,N,00911.08288,E,2,08,1.58,145.5,M,47.1,M,,0000*45
$GNGGA,163541.00,4529.82602,N,00911.08301,E,2,08,1.58,145.6,M,47.1,M,,0000*42
$GNGGA,163542.00,4529.82589,N,00911.08314,E,2,08,1.58,145.7,M,47.1,M,,0000*44
$GNGGA,163543.00,4529.82574,N,00911.08328,E,2,08,1.58,145.9,M,47.1,M,,0000*46
$GNGGA,163544.00,4529.82562,N,00911.08334,E,2,08,1.58,146.0,M,47.1,M,,0000*41
$GNGGA,163545.00,4529.82557,N,00911.08335,E,2,08,1.58,146.0,M,47.1,M,,0000*47
$GNGGA,163546.00,4529.82543,N,00911.08351,E,2,08,1.58,146.2,M,47.1,M,,0000*41
$GNGGA,163547.00,4529.82538,N,00911.08356,E,2,08,1.58,146.2,M,47.1,M,,0000*4B
$GNGGA,163548.00,4529.82534,N,00911.08360,E,2,08,1.58,146.2,M,47.1,M,,0000*4D
$GNGGA,163549.00,4529.82532,N,00911.08361,E,2,08,1.58,146.2,M,47.1,M,,0000*4B
$GNGGA,163550.00,4529.82532,N,00911.08358,E,2,08,1.58,146.3,M,47.1,M,,0000*48
$GNGGA,163551.00,4529.82536,N,00911.08355,E,2,08,1.32,146.3,M,47.1,M,,0000*4C
$GNGGA,163552.00,4529.82540,N,00911.08349,E,2,08,1.58,146.4,M,47.1,M,,0000*48
$GNGGA,163553.00,4529.82545,N,00911.08342,E,2,09,1.51,146.4,M,47.1,M,,0000*4F
$GNGGA,163554.00,4529.82550,N,00911.08336,E,2,08,1.32,146.4,M,47.1,M,,0000*4B
$GNGGA,163555.00,4529.82545,N,00911.08340,E,2,08,1.32,146.5,M,47.1,M,,0000*4E
$GNGGA,163556.00,4529.82544,N,00911.08340,E,2,08,1.58,146.6,M,47.1,M,,0000*43
$GNGGA,163557.00,4529.82538,N,00911.08344,E,2,08,1.58,146.7,M,47.1,M,,0000*4C
$GNGGA,163558.00,4529.82535,N,00911.08345,E,2,08,1.58,146.7,M,47.1,M,,0000*4F
$GNGGA,163559.00,4529.82525,N,00911.08353,E,2,08,1.58,146.8,M,47.1,M,,0000*47
$GNGGA,163600.00,4529.82514,N,00911.08362,E,2,08,1.32,146.9,M,47.1,M,,0000*45
$GNGGA,163601.00,4529.82498,N,00911.08377,E,2,08,1.58,147.0,M,47.1,M,,0000*41
$GNGGA,163602.00,4529.82482,N,00911.08390,E,2,09,1.50,147.2,M,47.1,M,,0000*4B
$GNGGA,163603.00,4529.82473,N,00911.08394,E,2,09,1.50,147.3,M,47.1,M,,0000*41
$GNGGA,163604.00,4529.82460,N,00911.08404,E,2,09,1.30,147.4,M,47.1,M,,0000*4B
$GNGGA,163605.00,4529.82448,N,00911.08411,E,2,09,1.30,147.5,M,47.1,M,,0000*45
$GNGGA,163606.00,4529.82445,N,00911.08411,E,2,09,1.30,147.6,M,47.1,M,,0000*48
$GNGGA,163607.00,4529.82443,N,00911.08407,E,2,09,1.30,147.6,M,47.1,M,,0000*48
$GNGGA,163608.00,4529.82441,N,00911.08407,E,2,09,1.30,147.7,M,47.1,M,,0000*44
$GNGGA,163609.00,4529.82442,N,00911.08403,E,2,09,1.30,147.8,M,47.1,M,,0000*4D
$GNGGA,163610.00,4529.82437,N,00911.08403,E,2,09,1.50,147.8,M,47.1,M,,0000*41
$GNGGA,163611.00,4529.82430,N,00911.08408,E,2,09,1.50,147.8,M,47.1,M,,0000*4C
$GNGGA,163612.00,4529.82409,N,00911.08426,E,2,09,1.30,148.0,M,47.1,M,,0000*48
$GNGGA,163613.00,4529.82396,N,00911.08437,E,2,09,1.50,148.1,M,47.1,M,,0000*4F
$GNGGA,163614.00,4529.82388,N,00911.08443,E,2,10,1.50,148.2,M,47.1,M,,0000*4F
$GNGGA,163615.00,4529.82379,N,00911.08455,E,2,09,1.50,148.3,M,47.1,M,,0000*4E
$GNGGA,163616.00,4529.82369,N,00911.08467,E,2,10,1.30,148.4,M,47.1,M,,0000*44
$GNGGA,163617.00,4529.82361,N,00911.08477,E,2,10,1.50,148.6,M,47.1,M,,0000*48
$GNGGA,163618.00,4529.82350,N,00911.08487,E,2,10,1.30,148.7,M,47.1,M,,0000*4D
$GNGGA,163619.00,4529.82325,N,00911.08510,E,2,10,1.30,149.1,M,47.1,M,,0000*46
$GNGGA,163620.00,4529.82301,N,00911.08534,E,2,10,1.50,149.5,M,47.1,M,,0000*4E
$GNGGA,163621.00,4529.82271,N,00911.08564,E,2,10,1.30,149.9,M,47.1,M,,0000*46
$GNGGA,163622.00,4529.82242,N,00911.08593,E,2,10,1.34,150.2,M,47.1,M,,0000*4A
$GNGGA,163623.00,4529.82216,N,00911.08622,E,2,10,1.34,150.5,M,47.1,M,,0000*44
$GNGGA,163624.00,4529.82201,N,00911.08641,E,2,10,1.24,150.7,M,47.1,M,,0000*43
$GNGGA,163625.00,4529.82180,N,00911.08663,E,2,10,1.24,151.1,M,47.1,M,,0000*4F
$GNGGA,163626.00,4529.82166,N,00911.08678,E,2,10,1.24,151.4,M,47.1,M,,0000*4B
$GNGGA,163627.00,4529.82166,N,00911.08677,E,2,10,1.24,151.5,M,47.1,M,,0000*44
$GNGGA,163628.00,4529.82165,N,00911.08676,E,2,10,1.24,151.7,M,47.1,M,,0000*4B
