$GNGGA,162323.00,4529.82561,N,00911.08683,E,1,08,2.40,127.0,M,47.1,M,,*43
$GNGGA,162324.00,4529.82565,N,00911.08678,E,1,09,2.40,127.0,M,47.1,M,,*45
$GNGGA,162325.00,4529.82568,N,00911.08674,E,1,09,2.40,127.0,M,47.1,M,,*45
$GNGGA,162326.00,4529.82568,N,00911.08675,E,1,09,2.40,127.0,M,47.1,M,,*47
$GNGGA,162327.00,4529.82568,N,00911.08675,E,1,09,2.40,127.0,M,47.1,M,,*46
$GNGGA,162328.00,4529.82574,N,00911.08669,E,1,09,2.40,127.0,M,47.1,M,,*49
$GNGGA,162329.00,4529.82574,N,00911.08669,E,1,09,2.40,127.0,M,47.1,M,,*48
$GNGGA,162330.00,4529.82571,N,00911.08671,E,1,09,2.39,127.1,M,47.1,M,,*43
$GNGGA,162331.00,4529.82572,N,00911.08670,E,1,09,2.39,127.1,M,47.1,M,,*40
$GNGGA,162332.00,4529.82572,N,00911.08670,E,1,09,2.39,127.1,M,47.1,M,,*43
$GNGGA,162333.00,4529.82573,N,00911.08668,E,1,09,2.39,127.2,M,47.1,M,,*49
$GNGGA,162334.00,4529.82572,N,00911.08668,E,1,09,2.39,127.2,M,47.1,M,,*4F
$GNGGA,162335.00,4529.82574,N,00911.08664,E,1,09,2.39,127.3,M,47.1,M,,*45
$GNGGA,162336.00,4529.82574,N,00911.08662,E,1,09,2.39,127.4,M,47.1,M,,*47
$GNGGA,162337.00,4529.82571,N,00911.08663,E,1,09,2.39,127.4,M,47.1,M,,*42
$GNGGA,162338.00,4529.82571,N,00911.08661,E,1,09,2.39,127.5,M,47.1,M,,*4E
$GNGGA,162339.00,4529.82566,N,00911.08664,E,1,09,2.39,127.7,M,47.1,M,,*4E
$GNGGA,162340.00,4529.82563,N,00911.08664,E,1,09,2.39,127.8,M,47.1,M,,*4A
$GNGGA,162341.00,4529.82561,N,00911.08664,E,1,09,2.39,127.9,M,47.1,M,,*48
$GNGGA,162342.00,4529.82556,N,00911.08666,E,1,09,1.49,128.1,M,47.1,M,,*4E
$GNGGA,162343.00,4529.82554,N,00911.08665,E,1,09,1.49,128.2,M,47.1,M,,*4D
$GNGGA,162344.00,4529.82549,N,00911.08667,E,1,09,1.49,128.4,M,47.1,M,,*42
$GNGGA,162345.00,4529.82544,N,00911.08668,E,1,09,1.36,128.6,M,47.1,M,,*4B
$GNGGA,162346.00,4529.82538,N,00911.08671,E,1,09,1.36,128.7,M,47.1,M,,*4A
$GNGGA,162347.00,4529.82531,N,00911.08675,E,1,09,1.49,128.9,M,47.1,M,,*40
$GNGGA,162348.00,4529.82524,N,00911.08680,E,1,09,1.49,129.1,M,47.1,M,,*48
$GNGGA,162349.00,4529.82518,N,00911.08681,E,1,09,1.36,129.3,M,47.1,M,,*4D
$GNGGA,162350.00,4529.82513,N,00911.08682,E,1,09,1.36,129.4,M,47.1,M,,*4A
$GNGGA,162351.00,4529.82508,N,00911.08683,E,1,09,1.84,129.6,M,47.1,M,,*4B
$GNGGA,162352.00,4529.82504,N,00911.08683,E,1,09,1.36,129.8,M,47.1,M,,*43
$GNGGA,162353.00,4529.82501,N,00911.08681,E,1,09,1.36,130.0,M,47.1,M,,*45
$GNGGA,162354.00,4529.82502,N,00911.08677,E,1,09,1.36,130.2,M,47.1,M,,*4A
$GNGGA,162355.00,4529.82504,N,00911.08670,E,1,09,1.36,130.3,M,47.1,M,,*4B
$GNGGA,162356.00,4529.82500,N,00911.08670,E,1,09,1.36,130.5,M,47.1,M,,*4A
$GNGGA,162357.00,4529.82497,N,00911.08667,E,1,09,1.36,130.6,M,47.1,M,,*41
$GNGGA,162358.00,4529.82503,N,00911.08657,E,1,09,1.36,130.7,M,47.1,M,,*40
$GNGGA,162359.00,4529.82502,N,00911.08653,E,1,09,1.36,130.8,M,47.1,M,,*4B
$GNGGA,162400.00,4529.82500,N,00911.08649,E,1,09,1.36,131.0,M,47.1,M,,*40
$GNGGA,162401.00,4529.82493,N,00911.08653,E,1,09,1.49,131.2,M,47.1,M,,*4B
$GNGGA,162402.00,4529.82498,N,00911.08644,E,1,09,1.89,131.3,M,47.1,M,,*48
$GNGGA,162403.00,4529.82500,N,00911.08636,E,1,09,1.45,131.4,M,47.1,M,,*4B
$GNGGA,162404.00,4529.82505,N,00911.08628,E,1,09,1.45,131.4,M,47.1,M,,*46
$GNGGA,162405.00,4529.82511,N,00911.08618,E,1,09,1.84,131.5,M,47.1,M,,*4D
$GNGGA,162406.00,4529.82520,N,00911.08604,E,1,09,1.45,131.6,M,47.1,M,,*4F
$GNGGA,162407.00,4529.82525,N,00911.08595,E,1,09,1.45,131.6,M,47.1,M,,*40
$GNGGA,162408.00,4529.82528,N,00911.08588,E,1,09,1.84,131.7,M,47.1,M,,*42
$GNGGA,162409.00,4529.82530,N,00911.08583,E,1,09,1.84,131.7,M,47.1,M,,*41
$GNGGA,162410.00,4529.82532,N,00911.08579,E,1,09,1.45,131.8,M,47.1,M,,*4C
$GNGGA,162411.00,4529.82536,N,00911.08570,E,1,09,1.84,131.8,M,47.1,M,,*4D
$GNGGA,162412.00,4529.82539,N,00911.08565,E,1,09,1.45,131.9,M,47.1,M,,*49
$GNGGA,162413.00,4529.82542,N,00911.08559,E,1,09,1.45,131.9,M,47.1,M,,*4B
$GNGGA,162414.00,4529.82545,N,00911.08552,E,1,09,3.01,131.9,M,47.1,M,,*42
$GNGGA,162415.00,4529.82549,N,00911.08546,E,1,09,1.89,132.0,M,47.1,M,,*42
$GNGGA,162416.00,4529.82554,N,00911.08538,E,1,09,1.84,132.0,M,47.1,M,,*49
$GNGGA,162417.00,4529.82556,N,00911.08532,E,1,09,1.84,132.0,M,47.1,M,,*40
$GNGGA,162418.00,4529.82558,N,00911.08529,E,1,08,1.45,132.0,M,47.1,M,,*47
$GNGGA,162419.00,4529.82563,N,00911.08522,E,1,08,1.45,132.0,M,47.1,M,,*45
$GNGGA,162420.00,4529.82561,N,00911.08523,E,1,08,1.89,132.0,M,47.1,M,,*4C
$GNGGA,162421.00,4529.82562,N,00911.08521,E,1,08,1.84,132.0,M,47.1,M,,*41
$GNGGA,162422.00,4529.82561,N,00911.08520,E,1,08,1.88,132.1,M,47.1,M,,*4D
$GNGGA,162423.00,4529.82561,N,00911.08518,E,1,08,3.01,132.1,M,47.1,M,,*44
$GNGGA,162424.00,4529.82562,N,00911.08517,E,1,08,1.45,132.1,M,47.1,M,,*4D
$GNGGA,162425.00,4529.82564,N,00911.08514,E,1,08,1.88,132.1,M,47.1,M,,*48
$GNGGA,162426.00,4529.82564,N,00911.08514,E,1,08,3.01,132.1,M,47.1,M,,*48
$GNGGA,162427.00,4529.82564,N,00911.08513,E,1,08,1.45,132.1,M,47.1,M,,*4C
$GNGGA,162428.00,4529.82561,N,00911.08516,E,1,08,1.45,132.1,M,47.1,M,,*43
$GNGGA,162429.00,4529.82559,N,00911.08517,E,1,08,1.88,132.1,M,47.1,M,,*49
$GNGGA,162430.00,4529.82558,N,00911.08518,E,1,08,3.02,132.1,M,47.1,M,,*4F
$GNGGA,162431.00,4529.82554,N,00911.08522,E,1,08,1.36,132.1,M,47.1,M,,*4E
$GNGGA,162432.00,4529.82555,N,00911.08521,E,1,08,2.37,132.1,M,47.1,M,,*4D
$GNGGA,162433.00,4529.82553,N,00911.08524,E,1,08,1.82,132.1,M,47.1,M,,*42
$GNGGA,162434.00,4529.82553,N,00911.08525,E,1,08,1.36,132.1,M,47.1,M,,*4B
$GNGGA,162435.00,4529.82546,N,00911.08532,E,1,08,1.36,132.2,M,47.1,M,,*4B
$GNGGA,162436.00,4529.82543,N,00911.08536,E,1,08,2.37,132.2,M,47.1,M,,*4B
$GNGGA,162437.00,4529.82534,N,00911.08546,E,1,09,2.37,132.2,M,47.1,M,,*4C
$GNGGA,162438.00,4529.82611,N,00911.08476,E,2,09,1.49,131.1,M,47.1,M,,0000*4C
$GNGGA,162439.00,4529.82689,N,00911.08403,E,2,09,1.49,130.0,M,47.1,M,,0000*4E
$GNGGA,162440.00,4529.82652,N,00911.08430,E,2,09,3.02,129.4,M,47.1,M,,0000*47
$GNGGA,162441.00,4529.82663,N,00911.08415,E,2,09,1.84,128.9,M,47.1,M,,0000*43
$GNGGA,162442.00,4529.82680,N,00911.08394,E,2,09,1.45,128.4,M,47.1,M,,0000*43
$GNGGA,162443.00,4529.82692,N,00911.08379,E,2,09,1.88,128.1,M,47.1,M,,0000*46
$GNGGA,162444.00,4529.82705,N,00911.08364,E,2,09,1.85,127.7,M,47.1,M,,0000*46
$GNGGA,162445.00,4529.82713,N,00911.08322,E,2,09,1.85,127.8,M,47.1,M,,0000*4D
$GNGGA,162446.00,4529.82728,N,00911.08277,E,2,09,1.49,127.9,M,47.1,M,,0000*46
$GNGGA,162447.00,4529.82736,N,00911.08241,E,2,08,2.36,128.1,M,47.1,M,,0000*40
$GNGGA,162448.00,4529.82748,N,00911.08207,E,2,08,1.36,128.1,M,47.1,M,,0000*47
$GNGGA,162449.00,4529.82762,N,00911.08171,E,2,08,1.49,128.1,M,47.1,M,,0000*44
$GNGGA,162450.00,4529.82775,N,00911.08136,E,2,08,1.49,128.2,M,47.1,M,,0000*4A
$GNGGA,162451.00,4529.82787,N,00911.08105,E,2,08,1.36,128.2,M,47.1,M,,0000*4E
$GNGGA,162452.00,4529.82798,N,00911.08078,E,2,08,2.36,128.3,M,47.1,M,,0000*4A
$GNGGA,162453.00,4529.82809,N,00911.08053,E,2,09,1.71,128.3,M,47.1,M,,0000*44
$GNGGA,162454.00,4529.82821,N,00911.08028,E,2,09,1.71,128.3,M,47.1,M,,0000*45
$GNGGA,162455.00,4529.82836,N,00911.07998,E,2,09,1.29,128.3,M,47.1,M,,0000*42
$GNGGA,162456.00,4529.82847,N,00911.07974,E,2,09,1.71,128.4,M,47.1,M,,0000*4F
$GNGGA,162457.00,4529.82857,N,00911.07949,E,2,09,1.29,128.5,M,47.1,M,,0000*4D
$GNGGA,162458.00,4529.82862,N,00911.07934,E,2,09,1.49,128.5,M,47.1,M,,0000*48
$GNGGA,162459.00,4529.82872,N,00911.07914,E,2,09,2.36,128.5,M,47.1,M,,0000*41
$GNGGA,162500.00,4529.82883,N,00911.07896,E,2,09,1.36,128.4,M,47.1,M,,0000*4B
$GNGGA,162501.00,4529.82894,N,00911.07878,E,2,09,1.36,128.3,M,47.1,M,,0000*4B
$GNGGA,162502.00,4529.82901,N,00911.07861,E,2,09,1.49,128.3,M,47.1,M,,0000*45
$GNGGA,162503.00,4529.82910,N,00911.07846,E,2,09,1.71,128.3,M,47.1,M,,0000*4A
$GNGGA,162504.00,4529.82915,N,00911.07833,E,2,09,1.59,128.3,M,47.1,M,,0000*40
$GNGGA,162505.00,4529.82928,N,00911.07811,E,2,09,1.39,128.2,M,47.1,M,,0000*48
$GNGGA,162506.00,4529.82930,N,00911.07800,E,2,09,1.39,128.3,M,47.1,M,,0000*43
$GNGGA,162507.00,4529.82937,N,00911.07783,E,2,09,1.59,128.4,M,47.1,M,,0000*40
$GNGGA,162508.00,4529.82945,N,00911.07766,E,2,09,2.27,128.4,M,47.1,M,,0000*4B
$GNGGA,162509.00,4529.82954,N,00911.07747,E,2,09,1.29,128.3,M,47.1,M,,0000*43
$GNGGA,162510.00,4529.82964,N,00911.07729,E,2,09,1.49,128.3,M,47.1,M,,0000*46
$GNGGA,162511.00,4529.82974,N,00911.07710,E,2,09,1.59,128.3,M,47.1,M,,0000*4D
$GNGGA,162512.00,4529.82981,N,00911.07696,E,2,09,1.39,128.2,M,47.1,M,,0000*4C
$GNGGA,162513.00,4529.82984,N,00911.07686,E,2,09,1.39,128.2,M,47.1,M,,0000*49
$GNGGA,162514.00,4529.82984,N,00911.07679,E,2,09,1.59,128.2,M,47.1,M,,0000*48
$GNGGA,162515.00,4529.82986,N,00911.07670,E,2,09,1.59,128.2,M,47.1,M,,0000*42
$GNGGA,162516.00,4529.82992,N,00911.07657,E,2,09,1.39,128.1,M,47.1,M,,0000*44
$GNGGA,162517.00,4529.82997,N,00911.07646,E,2,09,1.39,128.1,M,47.1,M,,0000*40
$GNGGA,162518.00,4529.83001,N,00911.07637,E,2,09,1.39,128.0,M,47.1,M,,0000*4F
$GNGGA,162519.00,4529.83007,N,00911.07625,E,2,09,1.39,128.0,M,47.1,M,,0000*4B
$GNGGA,162520.00,4529.83013,N,00911.07613,E,2,09,1.45,127.9,M,47.1,M,,0000*4C
$GNGGA,162521.00,4529.83020,N,00911.07601,E,2,09,1.45,127.8,M,47.1,M,,0000*4F
$GNGGA,162522.00,4529.83027,N,00911.07589,E,2,09,1.45,127.7,M,47.1,M,,0000*47
$GNGGA,162523.00,4529.83035,N,00911.07576,E,2,09,1.86,127.6,M,47.1,M,,0000*4B
$GNGGA,162524.00,4529.83042,N,00911.07563,E,2,08,1.45,127.6,M,47.1,M,,0000*46
$GNGGA,162525.00,4529.83050,N,00911.07553,E,2,08,1.45,127.5,M,47.1,M,,0000*44
$GNGGA,162526.00,4529.83061,N,00911.07541,E,2,08,1.45,127.4,M,47.1,M,,0000*47
$GNGGA,162527.00,4529.83071,N,00911.07528,E,2,08,1.45,127.3,M,47.1,M,,0000*4F
$GNGGA,162528.00,4529.83082,N,00911.07518,E,2,08,1.45,127.2,M,47.1,M,,0000*4E
$GNGGA,162529.00,4529.83081,N,00911.07533,E,2,08,1.86,127.5,M,47.1,M,,0000*4D
$GNGGA,162530.00,4529.83222,N,00911.07519,E,2,08,1.45,127.7,M,47.1,M,,0000*4B
$GNGGA,162531.00,4529.83239,N,00911.07569,E,2,07,1.45,128.0,M,47.1,M,,0000*40
$GNGGA,162532.00,4529.83238,N,00911.07624,E,2,07,1.45,128.5,M,47.1,M,,0000*4D
$GNGGA,162533.00,4529.83238,N,00911.07677,E,2,07,1.45,129.1,M,47.1,M,,0000*4F
$GNGGA,162534.00,4529.83229,N,00911.07721,E,2,07,1.45,129.8,M,47.1,M,,0000*43
$GNGGA,162535.00,4529.83173,N,00911.07531,E,2,07,1.45,132.9,M,47.1,M,,0000*46
$GNGGA,162536.00,4529.83148,N,00911.07484,E,2,08,1.36,134.4,M,47.1,M,,0000*42
$GNGGA,162537.00,4529.83134,N,00911.07462,E,2,07,1.45,135.4,M,47.1,M,,0000*4A
$GNGGA,162538.00,4529.83118,N,00911.07462,E,2,07,3.04,136.3,M,47.1,M,,0000*48
$GNGGA,162539.00,4529.83102,N,00911.07464,E,2,07,3.04,137.0,M,47.1,M,,0000*46
$GNGGA,162540.00,4529.83091,N,00911.07467,E,2,07,1.45,137.6,M,47.1,M,,0000*41
$GNGGA,162541.00,4529.83081,N,00911.07471,E,2,07,1.45,138.1,M,47.1,M,,0000*4E
$GNGGA,162542.00,4529.83076,N,00911.07473,E,2,07,1.45,138.6,M,47.1,M,,0000*40
$GNGGA,162543.00,4529.83070,N,00911.07475,E,2,07,1.86,139.0,M,47.1,M,,0000*49
$GNGGA,162544.00,4529.83063,N,00911.07479,E,2,08,1.39,139.3,M,47.1,M,,0000*48
$GNGGA,162545.00,4529.83052,N,00911.07490,E,2,08,1.39,139.7,M,47.1,M,,0000*48
$GNGGA,162546.00,4529.83038,N,00911.07503,E,2,08,1.39,140.1,M,47.1,M,,0000*44
$GNGGA,162547.00,4529.83027,N,00911.07515,E,2,08,1.39,140.4,M,47.1,M,,0000*49
$GNGGA,162548.00,4529.83011,N,00911.07531,E,2,09,1.36,140.7,M,47.1,M,,0000*48
$GNGGA,162549.00,4529.83003,N,00911.07537,E,2,09,1.80,141.1,M,47.1,M,,0000*46
$GNGGA,162550.00,4529.82990,N,00911.07549,E,2,09,1.80,141.5,M,47.1,M,,0000*41
$GNGGA,162551.00,4529.82956,N,00911.07601,E,2,09,1.79,141.8,M,47.1,M,,0000*4E
$GNGGA,162552.00,4529.82929,N,00911.07642,E,2,09,1.79,142.1,M,47.1,M,,0000*48
$GNGGA,162553.00,4529.82906,N,00911.07674,E,2,09,1.79,142.4,M,47.1,M,,0000*44
$GNGGA,162554.00,4529.82878,N,00911.07713,E,2,09,1.79,142.6,M,47.1,M,,0000*49
$GNGGA,162555.00,4529.82860,N,00911.07741,E,2,09,1.36,142.9,M,47.1,M,,0000*42
$GNGGA,162556.00,4529.82841,N,00911.07770,E,2,09,1.79,143.1,M,47.1,M,,0000*42
$GNGGA,162557.00,4529.82823,N,00911.07799,E,2,09,1.79,143.3,M,47.1,M,,0000*42
$GNGGA,162558.00,4529.82801,N,00911.07828,E,2,09,1.79,143.6,M,47.1,M,,0000*4D
$GNGGA,162559.00,4529.82774,N,00911.07867,E,2,09,1.79,143.8,M,47.1,M,,0000*44
$GNGGA,162600.00,4529.82755,N,00911.07894,E,2,09,2.33,144.1,M,47.1,M,,0000*47
$GNGGA,162601.00,4529.82739,N,00911.07918,E,2,09,1.48,144.3,M,47.1,M,,0000*44
$GNGGA,162602.00,4529.82727,N,00911.07935,E,2,09,1.48,144.5,M,47.1,M,,0000*41
$GNGGA,162603.00,4529.82736,N,00911.07932,E,2,09,1.48,144.7,M,47.1,M,,0000*45
$GNGGA,162604.00,4529.82736,N,00911.07937,E,2,09,1.70,145.0,M,47.1,M,,0000*4A
$GNGGA,162605.00,4529.82729,N,00911.07949,E,2,09,1.70,145.3,M,47.1,M,,0000*4F
$GNGGA,162606.00,4529.82720,N,00911.07958,E,2,09,1.70,145.5,M,47.1,M,,0000*43
$GNGGA,162607.00,4529.82702,N,00911.07979,E,2,09,1.48,145.8,M,47.1,M,,0000*47
$GNGGA,162608.00,4529.82681,N,00911.08004,E,2,09,1.48,146.1,M,47.1,M,,0000*44
$GNGGA,162609.00,4529.82662,N,00911.08024,E,2,09,1.70,146.4,M,47.1,M,,0000*44
$GNGGA,162610.00,4529.82645,N,00911.08042,E,2,09,1.48,146.6,M,47.1,M,,0000*40
$GNGGA,162611.00,4529.82628,N,00911.08062,E,2,09,2.33,147.0,M,47.1,M,,0000*40
$GNGGA,162612.00,4529.82603,N,00911.08091,E,2,09,1.79,147.4,M,47.1,M,,0000*4F
$GNGGA,162613.00,4529.82589,N,00911.08108,E,2,09,1.79,147.7,M,47.1,M,,0000*4D
$GNGGA,162614.00,4529.82567,N,00911.08131,E,2,09,1.79,148.1,M,47.1,M,,0000*49
$GNGGA,162615.00,4529.82547,N,00911.08152,E,2,09,1.79,148.5,M,47.1,M,,0000*4B
$GNGGA,162616.00,4529.82536,N,00911.08164,E,2,09,1.79,148.9,M,47.1,M,,0000*47
$GNGGA,162617.00,4529.82516,N,00911.08185,E,2,09,1.79,149.2,M,47.1,M,,0000*41
$GNGGA,162618.00,4529.82489,N,00911.08214,E,2,09,1.78,149.7,M,47.1,M,,0000*46
$GNGGA,162619.00,4529.82463,N,00911.08240,E,2,09,1.78,150.1,M,47.1,M,,0000*4C
$GNGGA,162620.00,4529.82441,N,00911.08256,E,2,09,1.78,150.6,M,47.1,M,,0000*46
$GNGGA,162621.00,4529.82423,N,00911.08263,E,2,09,1.78,151.1,M,47.1,M,,0000*43
$GNGGA,162622.00,4529.82401,N,00911.08274,E,2,08,1.78,151.6,M,47.1,M,,0000*40
$GNGGA,162623.00,4529.82380,N,00911.08287,E,2,08,2.32,152.1,M,47.1,M,,0000*4A
$GNGGA,162624.00,4529.82370,N,00911.08288,E,2,08,1.78,152.5,M,47.1,M,,0000*44
$GNGGA,162625.00,4529.82367,N,00911.08285,E,2,08,1.78,152.9,M,47.1,M,,0000*42
$GNGGA,162626.00,4529.82360,N,00911.08289,E,2,08,1.78,153.1,M,47.1,M,,0000*43
$GNGGA,162627.00,4529.82357,N,00911.08287,E,2,08,1.78,153.4,M,47.1,M,,0000*4D
$GNGGA,162628.00,4529.82359,N,00911.08279,E,2,08,1.78,153.7,M,47.1,M,,0000*4E
$GNGGA,162629.00,4529.82354,N,00911.08282,E,2,08,1.78,154.0,M,47.1,M,,0000*46
$GNGGA,162630.00,4529.82348,N,00911.08286,E,2,08,1.78,154.2,M,47.1,M,,0000*45
$GNGGA,162631.00,4529.82351,N,00911.08278,E,2,08,1.78,154.5,M,47.1,M,,0000*4A
$GNGGA,162632.00,4529.82355,N,00911.08268,E,2,08,1.78,154.8,M,47.1,M,,0000*41
$GNGGA,162633.00,4529.82353,N,00911.08263,E,2,08,1.78,155.0,M,47.1,M,,0000*44
$GNGGA,162634.00,4529.82356,N,00911.08254,E,2,09,1.78,155.2,M,47.1,M,,0000*41
$GNGGA,162635.00,4529.82358,N,00911.08246,E,2,09,1.78,155.4,M,47.1,M,,0000*4B
$GNGGA,162636.00,4529.82351,N,00911.08248,E,2,09,1.78,155.7,M,47.1,M,,0000*4C
$GNGGA,162637.00,4529.82351,N,00911.08243,E,2,09,1.78,155.8,M,47.1,M,,0000*49
$GNGGA,162638.00,4529.82348,N,00911.08239,E,2,09,1.78,155.9,M,47.1,M,,0000*42
$GNGGA,162639.00,4529.82348,N,00911.08236,E,2,09,1.78,155.9,M,47.1,M,,0000*4C
$GNGGA,162640.00,4529.82348,N,00911.08234,E,2,08,1.78,155.8,M,47.1,M,,0000*40
$GNGGA,162641.00,4529.82352,N,00911.08228,E,2,08,1.78,155.7,M,47.1,M,,0000*48
$GNGGA,162642.00,4529.82364,N,00911.08217,E,2,08,1.78,155.5,M,47.1,M,,0000*40
$GNGGA,162643.00,4529.82375,N,00911.08209,E,2,08,2.31,155.2,M,47.1,M,,0000*47
$GNGGA,162644.00,4529.82399,N,00911.08186,E,2,08,2.31,155.0,M,47.1,M,,0000*44
$GNGGA,162645.00,4529.82420,N,00911.08167,E,2,08,1.77,154.8,M,47.1,M,,0000*47
$GNGGA,162646.00,4529.82447,N,00911.08143,E,2,08,1.77,154.5,M,47.1,M,,0000*4E
$GNGGA,162647.00,4529.82473,N,00911.08122,E,2,08,1.77,154.2,M,47.1,M,,0000*48
$GNGGA,162648.00,4529.82500,N,00911.08096,E,2,08,1.77,153.8,M,47.1,M,,0000*41
$GNGGA,162649.00,4529.82529,N,00911.08069,E,2,08,1.77,153.5,M,47.1,M,,0000*46
$GNGGA,162650.00,4529.82554,N,00911.08048,E,2,08,1.77,153.2,M,47.1,M,,0000*40
$GNGGA,162651.00,4529.82579,N,00911.08026,E,2,09,1.77,152.9,M,47.1,M,,0000*4D
$GNGGA,162652.00,4529.82607,N,00911.08000,E,2,09,1.77,152.5,M,47.1,M,,0000*4C
$GNGGA,162653.00,4529.82621,N,00911.07988,E,2,09,1.77,152.2,M,47.1,M,,0000*48
$GNGGA,162654.00,4529.82640,N,00911.07971,E,2,09,1.77,152.0,M,47.1,M,,0000*4C
$GNGGA,162655.00,4529.82652,N,00911.07962,E,2,09,1.77,151.7,M,47.1,M,,0000*48
$GNGGA,162656.00,4529.82660,N,00911.07955,E,2,09,1.77,151.5,M,47.1,M,,0000*4C
$GNGGA,162657.00,4529.82665,N,00911.07953,E,2,09,1.77,151.3,M,47.1,M,,0000*48
$GNGGA,162658.00,4529.82664,N,00911.07963,E,2,09,1.77,151.0,M,47.1,M,,0000*46
$GNGGA,162659.00,4529.82664,N,00911.07966,E,2,09,1.77,150.9,M,47.1,M,,0000*4A
$GNGGA,162700.00,4529.82664,N,00911.07968,E,2,09,1.77,150.7,M,47.1,M,,0000*47
$GNGGA,162701.00,4529.82664,N,00911.07974,E,2,09,1.77,150.6,M,47.1,M,,0000*4A
$GNGGA,162702.00,4529.82673,N,00911.07967,E,2,09,1.77,150.4,M,47.1,M,,0000*4F
$GNGGA,162703.00,4529.82682,N,00911.07963,E,2,09,2.30,150.3,M,47.1,M,,0000*43
$GNGGA,162704.00,4529.82699,N,00911.07950,E,2,08,3.06,150.1,M,47.1,M,,0000*49
$GNGGA,162705.00,4529.82712,N,00911.07943,E,2,08,1.83,150.0,M,47.1,M,,0000*46
$GNGGA,162706.00,4529.82731,N,00911.07928,E,2,08,1.83,149.7,M,47.1,M,,0000*46
$GNGGA,162707.00,4529.82739,N,00911.07926,E,2,08,1.83,149.6,M,47.1,M,,0000*40
$GNGGA,162708.00,4529.82741,N,00911.07930,E,2,08,3.06,149.5,M,47.1,M,,0000*4B
$GNGGA,162709.00,4529.82743,N,00911.07934,E,2,08,1.83,149.4,M,47.1,M,,0000*42
$GNGGA,162710.00,4529.82749,N,00911.07929,E,2,08,1.83,149.2,M,47.1,M,,0000*4A
$GNGGA,162711.00,4529.82754,N,00911.07921,E,2,08,1.83,149.0,M,47.1,M,,0000*4D
$GNGGA,162712.00,4529.82758,N,00911.07915,E,2,08,1.57,148.8,M,47.1,M,,0000*45
$GNGGA,162713.00,4529.82768,N,00911.07902,E,2,08,1.57,148.6,M,47.1,M,,0000*4F
$GNGGA,162714.00,4529.82782,N,00911.07882,E,2,08,1.57,148.5,M,47.1,M,,0000*46
$GNGGA,162715.00,4529.82794,N,00911.07867,E,2,09,1.57,148.4,M,47.1,M,,0000*4B
$GNGGA,162716.00,4529.82814,N,00911.07842,E,2,09,1.57,148.2,M,47.1,M,,0000*4E
$GNGGA,162717.00,4529.82821,N,00911.07831,E,2,09,1.82,148.0,M,47.1,M,,0000*47
$GNGGA,162718.00,4529.82831,N,00911.07816,E,2,09,1.82,147.9,M,47.1,M,,0000*4A
$GNGGA,162719.00,4529.82845,N,00911.07794,E,2,09,1.82,147.8,M,47.1,M,,0000*4C
$GNGGA,162720.00,4529.82858,N,00911.07779,E,2,09,1.82,147.6,M,47.1,M,,0000*47
$GNGGA,162721.00,4529.82872,N,00911.07761,E,2,09,3.07,147.5,M,47.1,M,,0000*4B
$GNGGA,162722.00,4529.82910,N,00911.07717,E,2,09,1.82,147.3,M,47.1,M,,0000*45
$GNGGA,162723.00,4529.82939,N,00911.07683,E,2,09,1.76,147.2,M,47.1,M,,0000*49
$GNGGA,162724.00,4529.82962,N,00911.07656,E,2,09,1.76,147.0,M,47.1,M,,0000*4A
$GNGGA,162725.00,4529.82988,N,00911.07625,E,2,09,1.76,146.7,M,47.1,M,,0000*4D
$GNGGA,162726.00,4529.83016,N,00911.07593,E,2,09,1.76,146.3,M,47.1,M,,0000*4B
$GNGGA,162727.00,4529.83035,N,00911.07570,E,2,09,1.76,146.1,M,47.1,M,,0000*44
$GNGGA,162728.00,4529.83043,N,00911.07559,E,2,09,1.76,145.9,M,47.1,M,,0000*4A
$GNGGA,162729.00,4529.83046,N,00911.07553,E,2,09,1.76,145.8,M,47.1,M,,0000*45
$GNGGA,162730.00,4529.83049,N,00911.07547,E,2,09,2.29,145.8,M,47.1,M,,0000*4E
$GNGGA,162731.00,4529.83060,N,00911.07533,E,2,09,2.29,145.6,M,47.1,M,,0000*49
$GNGGA,162732.00,4529.83068,N,00911.07524,E,2,09,1.76,145.5,M,47.1,M,,0000*4E
$GNGGA,162733.00,4529.83081,N,00911.07507,E,2,09,2.29,145.4,M,47.1,M,,0000*41
$GNGGA,162734.00,4529.83089,N,00911.07499,E,2,09,1.76,145.3,M,47.1,M,,0000*46
$GNGGA,162735.00,4529.83104,N,00911.07480,E,2,09,1.76,145.1,M,47.1,M,,0000*49
$GNGGA,162736.00,4529.83104,N,00911.07478,E,2,09,3.07,145.1,M,47.1,M,,0000*49
$GNGGA,162737.00,4529.83108,N,00911.07470,E,2,09,1.82,145.0,M,47.1,M,,0000*42
$GNGGA,162738.00,4529.83110,N,00911.07466,E,2,09,1.82,144.8,M,47.1,M,,0000*4A
$GNGGA,162739.00,4529.83119,N,00911.07453,E,2,09,3.07,144.6,M,47.1,M,,0000*45
$GNGGA,162740.00,4529.83120,N,00911.07451,E,2,09,2.28,144.5,M,47.1,M,,0000*4C
$GNGGA,162741.00,4529.83120,N,00911.07450,E,2,09,1.46,144.4,M,47.1,M,,0000*46
$GNGGA,162742.00,4529.83117,N,00911.07453,E,2,09,1.46,144.3,M,47.1,M,,0000*45
$GNGGA,162743.00,4529.83115,N,00911.07456,E,2,09,1.46,144.1,M,47.1,M,,0000*41
$GNGGA,162744.00,4529.83109,N,00911.07463,E,2,09,1.46,144.1,M,47.1,M,,0000*4D
$GNGGA,162745.00,4529.83100,N,00911.07472,E,2,09,1.68,144.0,M,47.1,M,,0000*48
$GNGGA,162746.00,4529.83090,N,00911.07483,E,2,09,1.46,143.9,M,47.1,M,,0000*4F
$GNGGA,162747.00,4529.83081,N,00911.07494,E,2,09,1.46,143.9,M,47.1,M,,0000*48
$GNGGA,162748.00,4529.83073,N,00911.07503,E,2,09,1.68,143.9,M,47.1,M,,0000*49
$GNGGA,162749.00,4529.83068,N,00911.07509,E,2,09,1.75,143.8,M,47.1,M,,0000*45
$GNGGA,162750.00,4529.83063,N,00911.07516,E,2,09,2.28,143.8,M,47.1,M,,0000*43
$GNGGA,162751.00,4529.83055,N,00911.07528,E,2,09,2.28,143.8,M,47.1,M,,0000*4A
$GNGGA,162752.00,4529.83049,N,00911.07537,E,2,09,1.75,143.7,M,47.1,M,,0000*4E
$GNGGA,162753.00,4529.83050,N,00911.07536,E,2,09,1.75,143.5,M,47.1,M,,0000*44
$GNGGA,162754.00,4529.83055,N,00911.07532,E,2,09,2.28,143.4,M,47.1,M,,0000*48
$GNGGA,162755.00,4529.83048,N,00911.07545,E,2,09,2.28,143.4,M,47.1,M,,0000*45
$GNGGA,162756.00,4529.83041,N,00911.07555,E,2,09,2.28,143.4,M,47.1,M,,0000*4E
$GNGGA,162757.00,4529.83032,N,00911.07567,E,2,09,1.68,143.3,M,47.1,M,,0000*4A
$GNGGA,162758.00,4529.83019,N,00911.07582,E,2,09,1.46,143.4,M,47.1,M,,0000*4C
$GNGGA,162759.00,4529.83001,N,00911.07608,E,2,09,1.46,143.5,M,47.1,M,,0000*44
$GNGGA,162800.00,4529.82979,N,00911.07637,E,2,09,1.68,143.6,M,47.1,M,,0000*43
$GNGGA,162801.00,4529.82947,N,00911.07679,E,2,09,1.46,143.8,M,47.1,M,,0000*47
$GNGGA,162802.00,4529.82921,N,00911.07713,E,2,09,1.46,143.9,M,47.1,M,,0000*48
$GNGGA,162803.00,4529.82896,N,00911.07745,E,2,09,1.68,144.0,M,47.1,M,,0000*45
$GNGGA,162804.00,4529.82869,N,00911.07783,E,2,09,1.46,144.2,M,47.1,M,,0000*46
$GNGGA,162805.00,4529.82844,N,00911.07818,E,2,09,1.68,144.3,M,47.1,M,,0000*48
$GNGGA,162806.00,4529.82822,N,00911.07850,E,2,08,2.27,144.4,M,47.1,M,,0000*49
$GNGGA,162807.00,4529.82801,N,00911.07883,E,2,08,1.50,144.5,M,47.1,M,,0000*45
$GNGGA,162808.00,4529.82780,N,00911.07916,E,2,08,1.50,144.5,M,47.1,M,,0000*41
$GNGGA,162809.00,4529.82767,N,00911.07934,E,2,08,2.27,144.4,M,47.1,M,,0000*4B
$GNGGA,162810.00,4529.82747,N,00911.07963,E,2,09,1.35,144.5,M,47.1,M,,0000*43
$GNGGA,162811.00,4529.82737,N,00911.07978,E,2,09,1.50,144.4,M,47.1,M,,0000*4D
$GNGGA,162812.00,4529.82733,N,00911.07991,E,2,08,1.50,144.3,M,47.1,M,,0000*4B
$GNGGA,162813.00,4529.82725,N,00911.08007,E,2,08,1.50,144.3,M,47.1,M,,0000*44
$GNGGA,162814.00,4529.82718,N,00911.08023,E,2,08,1.50,144.3,M,47.1,M,,0000*4B
$GNGGA,162815.00,4529.82708,N,00911.08039,E,2,08,1.50,144.3,M,47.1,M,,0000*40
$GNGGA,162816.00,4529.82696,N,00911.08058,E,2,08,1.35,144.3,M,47.1,M,,0000*41
$GNGGA,162817.00,4529.82685,N,00911.08076,E,2,08,1.35,144.4,M,47.1,M,,0000*49
$GNGGA,162818.00,4529.82668,N,00911.08099,E,2,08,1.50,144.5,M,47.1,M,,0000*46
$GNGGA,162819.00,4529.82657,N,00911.08113,E,2,07,1.90,144.6,M,47.1,M,,0000*48
$GNGGA,162820.00,4529.82646,N,00911.08128,E,2,07,1.44,144.7,M,47.1,M,,0000*42
$GNGGA,162821.00,4529.82633,N,00911.08146,E,2,07,1.90,144.8,M,47.1,M,,0000*4F
$GNGGA,162822.00,4529.82615,N,00911.08168,E,2,07,1.90,145.0,M,47.1,M,,0000*4D
$GNGGA,162823.00,4529.82601,N,00911.08184,E,2,07,3.08,145.1,M,47.1,M,,0000*49
$GNGGA,162824.00,4529.82590,N,00911.08198,E,2,07,1.90,145.3,M,47.1,M,,0000*49
$GNGGA,162825.00,4529.82575,N,00911.08213,E,2,07,1.91,145.4,M,47.1,M,,0000*45
$GNGGA,162826.00,4529.82556,N,00911.08232,E,2,07,1.91,145.7,M,47.1,M,,0000*47
$GNGGA,162827.00,4529.82544,N,00911.08242,E,2,08,2.26,146.0,M,47.1,M,,0000*46
$GNGGA,162828.00,4529.82527,N,00911.08258,E,2,08,1.44,146.3,M,47.1,M,,0000*43
$GNGGA,162829.00,4529.82521,N,00911.08261,E,2,08,1.80,146.5,M,47.1,M,,0000*40
$GNGGA,162830.00,4529.82512,N,00911.08262,E,2,08,2.26,146.8,M,47.1,M,,0000*49
$GNGGA,162831.00,4529.82502,N,00911.08268,E,2,08,1.35,147.0,M,47.1,M,,0000*4B
$GNGGA,162832.00,4529.82492,N,00911.08272,E,2,07,1.80,147.3,M,47.1,M,,0000*49
$GNGGA,162833.00,4529.82476,N,00911.08283,E,2,07,3.09,147.6,M,47.1,M,,0000*4A
$GNGGA,162834.00,4529.82453,N,00911.08299,E,2,07,1.44,148.0,M,47.1,M,,0000*43
$GNGGA,162835.00,4529.82431,N,00911.08315,E,2,07,1.80,148.4,M,47.1,M,,0000*4F
$GNGGA,162836.00,4529.82410,N,00911.08329,E,2,08,1.44,148.8,M,47.1,M,,0000*4B
$GNGGA,162837.00,4529.82392,N,00911.08344,E,2,08,1.44,149.2,M,47.1,M,,0000*47
$GNGGA,162838.00,4529.82377,N,00911.08354,E,2,08,1.80,149.6,M,47.1,M,,0000*4E
$GNGGA,162839.00,4529.82372,N,00911.08351,E,2,08,1.80,150.0,M,47.1,M,,0000*41
$GNGGA,162840.00,4529.82363,N,00911.08349,E,2,09,1.73,150.4,M,47.1,M,,0000*4F
$GNGGA,162841.00,4529.82361,N,00911.08339,E,2,09,1.35,150.7,M,47.1,M,,0000*4A
$GNGGA,162842.00,4529.82356,N,00911.08334,E,2,09,2.25,151.0,M,47.1,M,,0000*44
$GNGGA,162843.00,4529.82356,N,00911.08320,E,2,09,1.50,151.3,M,47.1,M,,0000*42
$GNGGA,162844.00,4529.82358,N,00911.08307,E,2,09,1.35,151.6,M,47.1,M,,0000*48
$GNGGA,162845.00,4529.82358,N,00911.08297,E,2,09,1.73,151.9,M,47.1,M,,0000*4C
$GNGGA,162846.00,4529.82352,N,00911.08293,E,2,08,1.73,152.2,M,47.1,M,,0000*48
$GNGGA,162847.00,4529.82339,N,00911.08299,E,2,08,1.35,152.4,M,47.1,M,,0000*4A
$GNGGA,162848.00,4529.82323,N,00911.08309,E,2,08,1.73,152.8,M,47.1,M,,0000*48
$GNGGA,162849.00,4529.82305,N,00911.08325,E,2,07,1.91,153.1,M,47.1,M,,0000*48
$GNGGA,162850.00,4529.82295,N,00911.08331,E,2,07,1.44,153.3,M,47.1,M,,0000*47
$GNGGA,162851.00,4529.82289,N,00911.08335,E,2,07,1.79,153.5,M,47.1,M,,0000*47
$GNGGA,162852.00,4529.82285,N,00911.08337,E,2,07,1.79,153.6,M,47.1,M,,0000*49
$GNGGA,162853.00,4529.82281,N,00911.08338,E,2,07,1.44,153.7,M,47.1,M,,0000*4C
$GNGGA,162854.00,4529.82260,N,00911.08356,E,2,07,1.79,154.0,M,47.1,M,,0000*42
$GNGGA,162855.00,4529.82253,N,00911.08361,E,2,07,1.44,154.1,M,47.1,M,,0000*48
$GNGGA,162856.00,4529.82235,N,00911.08380,E,2,07,1.79,154.4,M,47.1,M,,0000*4F
$GNGGA,162857.00,4529.82222,N,00911.08393,E,2,07,1.44,154.6,M,47.1,M,,0000*46
$GNGGA,162858.00,4529.82212,N,00911.08406,E,2,07,1.44,154.8,M,47.1,M,,0000*4F
$GNGGA,162859.00,4529.82211,N,00911.08411,E,2,07,1.44,154.9,M,47.1,M,,0000*4A
$GNGGA,162900.00,4529.82212,N,00911.08413,E,2,08,1.50,155.0,M,47.1,M,,0000*44
$GNGGA,162901.00,4529.82217,N,00911.08412,E,2,08,1.35,155.0,M,47.1,M,,0000*42
$GNGGA,162902.00,4529.82218,N,00911.08414,E,2,08,1.35,155.0,M,47.1,M,,0000*48
$GNGGA,162903.00,4529.82225,N,00911.08407,E,2,08,1.44,155.0,M,47.1,M,,0000*43
$GNGGA,162904.00,4529.82230,N,00911.08399,E,2,08,1.79,155.0,M,47.1,M,,0000*4E
$GNGGA,162905.00,4529.82238,N,00911.08388,E,2,08,1.79,155.0,M,47.1,M,,0000*47
$GNGGA,162906.00,4529.82250,N,00911.08373,E,2,08,1.44,154.9,M,47.1,M,,0000*48
$GNGGA,162907.00,4529.82262,N,00911.08361,E,2,08,1.50,154.8,M,47.1,M,,0000*4F
$GNGGA,162908.00,4529.82279,N,00911.08342,E,2,08,1.50,154.6,M,47.1,M,,0000*45
$GNGGA,162909.00,4529.82296,N,00911.08323,E,2,08,1.72,154.4,M,47.1,M,,0000*40
$GNGGA,162910.00,4529.82310,N,00911.08306,E,2,08,1.35,154.2,M,47.1,M,,0000*45
$GNGGA,162911.00,4529.82320,N,00911.08298,E,2,08,1.35,154.1,M,47.1,M,,0000*42
$GNGGA,162912.00,4529.82333,N,00911.08284,E,2,08,2.24,153.9,M,47.1,M,,0000*42
$GNGGA,162913.00,4529.82347,N,00911.08268,E,2,08,1.50,153.8,M,47.1,M,,0000*43
$GNGGA,162914.00,4529.82370,N,00911.08243,E,2,08,1.35,153.5,M,47.1,M,,0000*47
$GNGGA,162915.00,4529.82401,N,00911.08211,E,2,08,1.35,153.1,M,47.1,M,,0000*44
$GNGGA,162916.00,4529.82439,N,00911.08172,E,2,09,1.35,152.6,M,47.1,M,,0000*4D
$GNGGA,162917.00,4529.82480,N,00911.08131,E,2,09,1.35,152.1,M,47.1,M,,0000*4E
$GNGGA,162918.00,4529.82514,N,00911.08097,E,2,08,1.44,151.6,M,47.1,M,,0000*43
$GNGGA,162919.00,4529.82556,N,00911.08054,E,2,08,1.44,150.9,M,47.1,M,,0000*45
$GNGGA,162920.00,4529.82584,N,00911.08027,E,2,09,1.44,150.5,M,47.1,M,,0000*49
$GNGGA,162921.00,4529.82614,N,00911.07999,E,2,09,1.44,150.0,M,47.1,M,,0000*44
$GNGGA,162922.00,4529.82655,N,00911.07959,E,2,09,1.44,149.3,M,47.1,M,,0000*45
$GNGGA,162923.00,4529.82692,N,00911.07923,E,2,09,1.44,148.7,M,47.1,M,,0000*47
$GNGGA,162924.00,4529.82726,N,00911.07888,E,2,09,1.35,148.2,M,47.1,M,,0000*4D
$GNGGA,162925.00,4529.82758,N,00911.07862,E,2,09,1.50,147.8,M,47.1,M,,0000*47
$GNGGA,162926.00,4529.82790,N,00911.07834,E,2,09,1.35,147.3,M,47.1,M,,0000*4B
$GNGGA,162927.00,4529.82824,N,00911.07803,E,2,09,1.27,146.8,M,47.1,M,,0000*47
$GNGGA,162928.00,4529.82847,N,00911.07784,E,2,09,1.44,146.4,M,47.1,M,,0000*44
$GNGGA,162929.00,4529.82872,N,00911.07760,E,2,09,1.66,146.0,M,47.1,M,,0000*4D
$GNGGA,162930.00,4529.82889,N,00911.07751,E,2,09,1.66,145.7,M,47.1,M,,0000*47
$GNGGA,162931.00,4529.82910,N,00911.07736,E,2,09,1.66,145.4,M,47.1,M,,0000*45
$GNGGA,162932.00,4529.82929,N,00911.07725,E,2,09,1.44,145.1,M,47.1,M,,0000*4B
$GNGGA,162933.00,4529.82945,N,00911.07718,E,2,09,1.71,144.9,M,47.1,M,,0000*41
$GNGGA,162934.00,4529.82958,N,00911.07718,E,2,09,1.44,144.6,M,47.1,M,,0000*43
$GNGGA,162935.00,4529.82966,N,00911.07721,E,2,09,1.44,144.4,M,47.1,M,,0000*47
$GNGGA,162936.00,4529.82974,N,00911.07724,E,2,09,1.71,144.2,M,47.1,M,,0000*42
$GNGGA,162937.00,4529.82986,N,00911.07726,E,2,09,1.44,143.9,M,47.1,M,,0000*46
$GNGGA,162938.00,4529.83003,N,00911.07720,E,2,09,1.66,143.7,M,47.1,M,,0000*44
$GNGGA,162939.00,4529.83029,N,00911.07705,E,2,09,1.71,143.2,M,47.1,M,,0000*49
$GNGGA,162940.00,4529.83072,N,00911.07668,E,2,09,1.66,142.6,M,47.1,M,,0000*40
$GNGGA,162941.00,4529.83108,N,00911.07633,E,2,09,1.44,142.1,M,47.1,M,,0000*44
$GNGGA,162942.00,4529.83143,N,00911.07598,E,2,09,2.22,141.7,M,47.1,M,,0000*4C
$GNGGA,162943.00,4529.83174,N,00911.07563,E,2,09,1.44,141.4,M,47.1,M,,0000*4D
$GNGGA,162944.00,4529.83197,N,00911.07533,E,2,09,1.44,141.2,M,47.1,M,,0000*44
$GNGGA,162945.00,4529.83215,N,00911.07511,E,2,09,1.44,141.1,M,47.1,M,,0000*4F
$GNGGA,162946.00,4529.83235,N,00911.07489,E,2,09,1.66,140.8,M,47.1,M,,0000*46
$GNGGA,162947.00,4529.83250,N,00911.07472,E,2,09,1.66,140.6,M,47.1,M,,0000*4E
$GNGGA,162948.00,4529.83265,N,00911.07452,E,2,09,2.22,140.4,M,47.1,M,,0000*44
$GNGGA,162949.00,4529.83277,N,00911.07437,E,2,09,2.22,140.2,M,47.1,M,,0000*43
$GNGGA,162950.00,4529.83294,N,00911.07415,E,2,09,1.71,139.8,M,47.1,M,,0000*47
$GNGGA,162951.00,4529.83307,N,00911.07399,E,2,09,2.22,139.6,M,47.1,M,,0000*45
$GNGGA,162952.00,4529.83318,N,00911.07384,E,2,09,1.71,139.4,M,47.1,M,,0000*43
$GNGGA,162953.00,4529.83328,N,00911.07369,E,2,09,2.22,139.2,M,47.1,M,,0000*41
$GNGGA,162954.00,4529.83339,N,00911.07353,E,2,09,1.70,139.0,M,47.1,M,,0000*49
$GNGGA,162955.00,4529.83346,N,00911.07341,E,2,09,2.21,138.9,M,47.1,M,,0000*4C
$GNGGA,162956.00,4529.83349,N,00911.07332,E,2,09,1.70,138.9,M,47.1,M,,0000*43
$GNGGA,162957.00,4529.83350,N,00911.07328,E,2,09,1.70,138.8,M,47.1,M,,0000*40
$GNGGA,162958.00,4529.83345,N,00911.07330,E,2,09,2.21,138.8,M,47.1,M,,0000*45
$GNGGA,162959.00,4529.83334,N,00911.07336,E,2,09,1.35,138.8,M,47.1,M,,0000*42
$GNGGA,163000.00,4529.83313,N,00911.07352,E,2,09,1.70,138.9,M,47.1,M,,0000*41
$GNGGA,163001.00,4529.83295,N,00911.07366,E,2,09,1.35,139.0,M,47.1,M,,0000*41
$GNGGA,163002.00,4529.83271,N,00911.07386,E,2,09,1.70,139.1,M,47.1,M,,0000*46
$GNGGA,163003.00,4529.83251,N,00911.07402,E,2,09,1.70,139.2,M,47.1,M,,0000*4D
$GNGGA,163004.00,4529.83226,N,00911.07424,E,2,09,2.21,139.3,M,47.1,M,,0000*48
$GNGGA,163005.00,4529.83204,N,00911.07443,E,2,09,1.35,139.4,M,47.1,M,,0000*49
$GNGGA,163006.00,4529.83177,N,00911.07469,E,2,09,2.21,139.5,M,47.1,M,,0000*42
$GNGGA,163007.00,4529.83154,N,00911.07492,E,2,09,1.70,139.7,M,47.1,M,,0000*43
$GNGGA,163008.00,4529.83133,N,00911.07514,E,2,09,1.70,139.8,M,47.1,M,,0000*4D
$GNGGA,163009.00,4529.83111,N,00911.07539,E,2,10,2.21,140.0,M,47.1,M,,0000*4A
$GNGGA,163010.00,4529.83096,N,00911.07555,E,2,10,1.23,140.1,M,47.1,M,,0000*46
$GNGGA,163011.00,4529.83069,N,00911.07587,E,2,10,1.35,140.4,M,47.1,M,,0000*4A
$GNGGA,163012.00,4529.83038,N,00911.07623,E,2,10,1.40,140.8,M,47.1,M,,0000*4E
$GNGGA,163013.00,4529.83011,N,00911.07654,E,2,10,1.23,141.0,M,47.1,M,,0000*48
$GNGGA,163014.00,4529.82986,N,00911.07683,E,2,10,1.29,141.4,M,47.1,M,,0000*4D
$GNGGA,163015.00,4529.82969,N,00911.07702,E,2,09,1.29,141.7,M,47.1,M,,0000*4E
$GNGGA,163016.00,4529.82951,N,00911.07721,E,2,09,1.29,141.9,M,47.1,M,,0000*49
$GNGGA,163017.00,4529.82931,N,00911.07739,E,2,09,1.35,142.2,M,47.1,M,,0000*42
$GNGGA,163018.00,4529.82908,N,00911.07759,E,2,09,1.50,142.5,M,47.1,M,,0000*45
$GNGGA,163019.00,4529.82881,N,00911.07786,E,2,08,1.44,142.9,M,47.1,M,,0000*4E
$GNGGA,163020.00,4529.82854,N,00911.07802,E,2,08,1.94,143.3,M,47.1,M,,0000*49
$GNGGA,163021.00,4529.82836,N,00911.07812,E,2,08,3.11,143.6,M,47.1,M,,0000*47
$GNGGA,163022.00,4529.82814,N,00911.07829,E,2,08,1.76,144.0,M,47.1,M,,0000*4E
$GNGGA,163023.00,4529.82798,N,00911.07848,E,2,08,1.76,144.1,M,47.1,M,,0000*42
$GNGGA,163024.00,4529.82779,N,00911.07869,E,2,09,3.11,144.3,M,47.1,M,,0000*49
$GNGGA,163025.00,4529.82754,N,00911.07898,E,2,09,3.11,144.6,M,47.1,M,,0000*4C
$GNGGA,163026.00,4529.82728,N,00911.07923,E,2,09,1.76,145.0,M,47.1,M,,0000*41
$GNGGA,163027.00,4529.82705,N,00911.07949,E,2,09,3.11,145.4,M,47.1,M,,0000*44
$GNGGA,163028.00,4529.82685,N,00911.07970,E,2,09,1.76,145.7,M,47.1,M,,0000*48
$GNGGA,163029.00,4529.82661,N,00911.07998,E,2,09,3.11,146.0,M,47.1,M,,0000*42
$GNGGA,163030.00,4529.82641,N,00911.08021,E,2,09,2.20,146.3,M,47.1,M,,0000*4C
$GNGGA,163031.00,4529.82620,N,00911.08045,E,2,09,2.20,146.6,M,47.1,M,,0000*4D
$GNGGA,163032.00,4529.82588,N,00911.08085,E,2,09,2.19,146.9,M,47.1,M,,0000*46
$GNGGA,163033.00,4529.82568,N,00911.08109,E,2,09,2.19,147.2,M,47.1,M,,0000*46
$GNGGA,163034.00,4529.82549,N,00911.08133,E,2,09,2.19,147.4,M,47.1,M,,0000*4D
$GNGGA,163035.00,4529.82531,N,00911.08155,E,2,09,1.69,147.7,M,47.1,M,,0000*44
$GNGGA,163036.00,4529.82515,N,00911.08175,E,2,09,1.69,147.8,M,47.1,M,,0000*4C
$GNGGA,163037.00,4529.82500,N,00911.08191,E,2,09,2.19,148.1,M,47.1,M,,0000*41
$GNGGA,163038.00,4529.82484,N,00911.08200,E,2,09,1.69,148.4,M,47.1,M,,0000*49
$GNGGA,163039.00,4529.82478,N,00911.08203,E,2,09,1.51,148.6,M,47.1,M,,0000*41
$GNGGA,163040.00,4529.82479,N,00911.08202,E,2,09,1.39,148.8,M,47.1,M,,0000*4F
$GNGGA,163041.00,4529.82478,N,00911.08201,E,2,09,1.51,148.9,M,47.1,M,,0000*43
$GNGGA,163042.00,4529.82478,N,00911.08201,E,2,09,1.51,149.0,M,47.1,M,,0000*48
$GNGGA,163043.00,4529.82478,N,00911.08201,E,2,09,1.39,149.1,M,47.1,M,,0000*46
$GNGGA,163044.00,4529.82476,N,00911.08206,E,2,09,1.39,149.1,M,47.1,M,,0000*48
$GNGGA,163045.00,4529.82476,N,00911.08208,E,2,09,1.50,149.1,M,47.1,M,,0000*48
$GNGGA,163046.00,4529.82478,N,00911.08205,E,2,09,1.39,149.0,M,47.1,M,,0000*46
$GNGGA,163047.00,4529.82481,N,00911.08203,E,2,09,1.39,149.0,M,47.1,M,,0000*47
$GNGGA,163048.00,4529.82485,N,00911.08198,E,2,09,1.39,149.0,M,47.1,M,,0000*4D
$GNGGA,163049.00,4529.82480,N,00911.08205,E,2,09,1.50,149.0,M,47.1,M,,0000*41
$GNGGA,163050.00,4529.82480,N,00911.08206,E,2,09,1.50,149.0,M,47.1,M,,0000*4A
$GNGGA,163051.00,4529.82478,N,00911.08210,E,2,09,1.50,149.1,M,47.1,M,,0000*4A
$GNGGA,163052.00,4529.82473,N,00911.08215,E,2,09,1.50,149.1,M,47.1,M,,0000*47
$GNGGA,163053.00,4529.82461,N,00911.08228,E,2,09,1.50,149.3,M,47.1,M,,0000*49
$GNGGA,163054.00,4529.82455,N,00911.08235,E,2,09,1.50,149.4,M,47.1,M,,0000*42
$GNGGA,163055.00,4529.82444,N,00911.08248,E,2,09,1.60,149.6,M,47.1,M,,0000*48
$GNGGA,163056.00,4529.82442,N,00911.08252,E,2,09,1.43,149.6,M,47.1,M,,0000*47
$GNGGA,163057.00,4529.82435,N,00911.08261,E,2,09,1.60,149.8,M,47.1,M,,0000*49
$GNGGA,163058.00,4529.82431,N,00911.08266,E,2,09,1.60,149.8,M,47.1,M,,0000*45
$GNGGA,163059.00,4529.82430,N,00911.08266,E,2,09,1.43,149.8,M,47.1,M,,0000*44
$GNGGA,163100.00,4529.82428,N,00911.08266,E,2,09,1.60,149.8,M,47.1,M,,0000*41
$GNGGA,163101.00,4529.82422,N,00911.08273,E,2,09,1.50,149.9,M,47.1,M,,0000*4C
$GNGGA,163102.00,4529.82418,N,00911.08276,E,2,09,1.39,150.0,M,47.1,M,,0000*4D
$GNGGA,163103.00,4529.82414,N,00911.08278,E,2,09,1.50,150.1,M,47.1,M,,0000*40
$GNGGA,163104.00,4529.82416,N,00911.08276,E,2,09,1.39,150.0,M,47.1,M,,0000*45
$GNGGA,163105.00,4529.82411,N,00911.08281,E,2,09,1.50,150.2,M,47.1,M,,0000*46
$GNGGA,163106.00,4529.82407,N,00911.08284,E,2,10,1.50,150.2,M,47.1,M,,0000*4F
$GNGGA,163107.00,4529.82408,N,00911.08281,E,2,10,1.50,150.3,M,47.1,M,,0000*45
$GNGGA,163108.00,4529.82412,N,00911.08275,E,2,10,1.50,150.4,M,47.1,M,,0000*4D
$GNGGA,163109.00,4529.82419,N,00911.08266,E,2,10,1.31,150.4,M,47.1,M,,0000*42
$GNGGA,163110.00,4529.82425,N,00911.08260,E,2,09,1.50,150.4,M,47.1,M,,0000*4C
$GNGGA,163111.00,4529.82428,N,00911.08256,E,2,09,1.50,150.5,M,47.1,M,,0000*44
$GNGGA,163112.00,4529.82430,N,00911.08252,E,2,09,1.50,150.5,M,47.1,M,,0000*4A
$GNGGA,163113.00,4529.82438,N,00911.08245,E,2,09,1.50,150.5,M,47.1,M,,0000*45
$GNGGA,163114.00,4529.82451,N,00911.08230,E,2,09,1.50,150.4,M,47.1,M,,0000*4E
$GNGGA,163115.00,4529.82460,N,00911.08220,E,2,09,2.17,150.4,M,47.1,M,,0000*4C
$GNGGA,163116.00,4529.82464,N,00911.08216,E,2,09,1.50,150.4,M,47.1,M,,0000*4E
$GNGGA,163117.00,4529.82469,N,00911.08210,E,2,09,1.50,150.5,M,47.1,M,,0000*45
$GNGGA,163118.00,4529.82475,N,00911.08204,E,2,09,1.50,150.5,M,47.1,M,,0000*42
$GNGGA,163119.00,4529.82478,N,00911.08197,E,2,09,1.34,150.5,M,47.1,M,,0000*45
$GNGGA,163120.00,4529.82474,N,00911.08199,E,2,09,1.34,150.7,M,47.1,M,,0000*4F
$GNGGA,163121.00,4529.82471,N,00911.08197,E,2,09,1.67,150.8,M,47.1,M,,0000*4C
$GNGGA,163122.00,4529.82468,N,00911.08196,E,2,09,1.67,151.0,M,47.1,M,,0000*4F
$GNGGA,163123.00,4529.82469,N,00911.08191,E,2,09,1.34,151.1,M,47.1,M,,0000*4F
$GNGGA,163124.00,4529.82475,N,00911.08181,E,2,09,2.17,151.1,M,47.1,M,,0000*46
$GNGGA,163125.00,4529.82473,N,00911.08180,E,2,09,1.34,151.3,M,47.1,M,,0000*40
$GNGGA,163126.00,4529.82472,N,00911.08178,E,2,09,1.50,151.4,M,47.1,M,,0000*40
$GNGGA,163127.00,4529.82477,N,00911.08172,E,2,09,1.67,151.4,M,47.1,M,,0000*4A
$GNGGA,163128.00,4529.82479,N,00911.08170,E,2,09,1.50,151.5,M,47.1,M,,0000*4C
$GNGGA,163129.00,4529.82486,N,00911.08161,E,2,09,1.50,151.4,M,47.1,M,,0000*4C
$GNGGA,163130.00,4529.82495,N,00911.08150,E,2,09,2.16,151.4,M,47.1,M,,0000*45
$GNGGA,163131.00,4529.82503,N,00911.08139,E,2,09,1.34,151.5,M,47.1,M,,0000*47
$GNGGA,163132.00,4529.82510,N,00911.08130,E,2,10,1.34,151.5,M,47.1,M,,0000*47
$GNGGA,163133.00,4529.82517,N,00911.08121,E,2,10,2.16,151.5,M,47.1,M,,0000*42
$GNGGA,163134.00,4529.82524,N,00911.08113,E,2,09,1.34,151.4,M,47.1,M,,0000*4E
$GNGGA,163135.00,4529.82528,N,00911.08109,E,2,09,2.16,151.5,M,47.1,M,,0000*4A
$GNGGA,163136.00,4529.82535,N,00911.08099,E,2,09,2.16,151.5,M,47.1,M,,0000*4D
$GNGGA,163137.00,4529.82528,N,00911.08106,E,2,09,1.28,151.7,M,47.1,M,,0000*4B
$GNGGA,163138.00,4529.82525,N,00911.08109,E,2,09,1.22,151.8,M,47.1,M,,0000*43
$GNGGA,163139.00,4529.82516,N,00911.08117,E,2,09,2.16,151.9,M,47.1,M,,0000*48
$GNGGA,163140.00,4529.82510,N,00911.08126,E,2,09,1.22,151.9,M,47.1,M,,0000*46
$GNGGA,163141.00,4529.82514,N,00911.08124,E,2,09,1.28,151.9,M,47.1,M,,0000*4B
$GNGGA,163142.00,4529.82519,N,00911.08122,E,2,09,2.16,151.8,M,47.1,M,,0000*4C
$GNGGA,163143.00,4529.82522,N,00911.08124,E,2,09,1.22,151.8,M,47.1,M,,0000*47
$GNGGA,163144.00,4529.82516,N,00911.08135,E,2,09,1.49,151.8,M,47.1,M,,0000*4A
$GNGGA,163145.00,4529.82517,N,00911.08137,E,2,09,1.49,151.8,M,47.1,M,,0000*48
$GNGGA,163146.00,4529.82525,N,00911.08133,E,2,09,1.38,151.6,M,47.1,M,,0000*46
$GNGGA,163147.00,4529.82534,N,00911.08127,E,2,09,1.22,151.5,M,47.1,M,,0000*4A
$GNGGA,163148.00,4529.82546,N,00911.08116,E,2,09,1.49,151.3,M,47.1,M,,0000*49
$GNGGA,163149.00,4529.82556,N,00911.08107,E,2,09,1.28,151.2,M,47.1,M,,0000*4F
$GNGGA,163150.00,4529.82563,N,00911.08102,E,2,09,1.28,151.1,M,47.1,M,,0000*47
$GNGGA,163151.00,4529.82568,N,00911.08094,E,2,09,1.49,151.0,M,47.1,M,,0000*45
$GNGGA,163152.00,4529.82571,N,00911.08088,E,2,09,1.28,151.0,M,47.1,M,,0000*44
$GNGGA,163153.00,4529.82569,N,00911.08088,E,2,09,1.22,151.1,M,47.1,M,,0000*47
$GNGGA,163154.00,4529.82564,N,00911.08092,E,2,09,1.49,151.2,M,47.1,M,,0000*48
$GNGGA,163155.00,4529.82562,N,00911.08091,E,2,09,1.38,151.3,M,47.1,M,,0000*4B
$GNGGA,163156.00,4529.82555,N,00911.08096,E,2,09,1.22,151.3,M,47.1,M,,0000*40
$GNGGA,163157.00,4529.82547,N,00911.08105,E,2,09,1.49,151.4,M,47.1,M,,0000*43
$GNGGA,163158.00,4529.82547,N,00911.08102,E,2,09,1.28,151.4,M,47.1,M,,0000*4C
$GNGGA,163159.00,4529.82547,N,00911.08104,E,2,09,1.22,151.4,M,47.1,M,,0000*41
$GNGGA,163200.00,4529.82549,N,00911.08103,E,2,09,1.49,151.3,M,47.1,M,,0000*4D
$GNGGA,163201.00,4529.82552,N,00911.08103,E,2,09,1.28,151.3,M,47.1,M,,0000*41
$GNGGA,163202.00,4529.82549,N,00911.08112,E,2,09,1.22,151.3,M,47.1,M,,0000*42
$GNGGA,163203.00,4529.82543,N,00911.08123,E,2,09,1.48,151.3,M,47.1,M,,0000*47
$GNGGA,163204.00,4529.82545,N,00911.08125,E,2,09,1.37,151.2,M,47.1,M,,0000*49
$GNGGA,163205.00,4529.82544,N,00911.08130,E,2,09,1.37,151.1,M,47.1,M,,0000*4E
$GNGGA,163206.00,4529.82538,N,00911.08141,E,2,09,1.37,151.0,M,47.1,M,,0000*41
$GNGGA,163207.00,4529.82541,N,00911.08144,E,2,09,1.37,150.9,M,47.1,M,,0000*43
$GNGGA,163208.00,4529.82538,N,00911.08151,E,2,09,1.37,150.8,M,47.1,M,,0000*47
$GNGGA,163209.00,4529.82530,N,00911.08163,E,2,09,1.48,150.7,M,47.1,M,,0000*48
$GNGGA,163210.00,4529.82530,N,00911.08167,E,2,09,1.37,150.5,M,47.1,M,,0000*4E
$GNGGA,163211.00,4529.82528,N,00911.08172,E,2,09,1.48,150.4,M,47.1,M,,0000*4B
$GNGGA,163212.00,4529.82525,N,00911.08176,E,2,09,1.65,150.3,M,47.1,M,,0000*49
$GNGGA,163213.00,4529.82520,N,00911.08183,E,2,09,1.34,150.4,M,47.1,M,,0000*44
$GNGGA,163214.00,4529.82514,N,00911.08190,E,2,09,1.34,150.4,M,47.1,M,,0000*46
$GNGGA,163215.00,4529.82517,N,00911.08189,E,2,09,1.50,150.3,M,47.1,M,,0000*49
$GNGGA,163216.00,4529.82523,N,00911.08187,E,2,09,1.65,150.3,M,47.1,M,,0000*45
$GNGGA,163217.00,4529.82518,N,00911.08192,E,2,09,1.34,150.4,M,47.1,M,,0000*4B
$GNGGA,163218.00,4529.82524,N,00911.08186,E,2,09,1.65,150.3,M,47.1,M,,0000*4D
$GNGGA,163219.00,4529.82534,N,00911.08177,E,2,09,1.65,150.2,M,47.1,M,,0000*42
$GNGGA,163220.00,4529.82542,N,00911.08168,E,2,09,1.65,150.2,M,47.1,M,,0000*47
$GNGGA,163221.00,4529.82556,N,00911.08150,E,2,09,1.65,150.1,M,47.1,M,,0000*4B
$GNGGA,163222.00,4529.82565,N,00911.08140,E,2,09,1.65,150.0,M,47.1,M,,0000*48
$GNGGA,163223.00,4529.82570,N,00911.08135,E,2,09,1.65,149.9,M,47.1,M,,0000*4E
$GNGGA,163224.00,4529.82572,N,00911.08131,E,2,09,1.65,149.9,M,47.1,M,,0000*4F
$GNGGA,163225.00,4529.82569,N,00911.08135,E,2,09,1.34,149.9,M,47.1,M,,0000*44
$GNGGA,163226.00,4529.82566,N,00911.08136,E,2,09,1.50,149.8,M,47.1,M,,0000*48
$GNGGA,163227.00,4529.82561,N,00911.08142,E,2,09,2.27,149.9,M,47.1,M,,0000*4F
$GNGGA,163228.00,4529.82557,N,00911.08149,E,2,09,1.50,149.9,M,47.1,M,,0000*4D
$GNGGA,163229.00,4529.82548,N,00911.08163,E,2,09,2.13,149.9,M,47.1,M,,0000*4E
$GNGGA,163230.00,4529.82548,N,00911.08165,E,2,09,2.27,149.8,M,47.1,M,,0000*46
$GNGGA,163231.00,4529.82550,N,00911.08162,E,2,09,1.50,149.7,M,47.1,M,,0000*45
$GNGGA,163232.00,4529.82552,N,00911.08159,E,2,09,1.50,149.6,M,47.1,M,,0000*4D
$GNGGA,163233.00,4529.82555,N,00911.08155,E,2,09,2.27,149.6,M,47.1,M,,0000*44
$GNGGA,163234.00,4529.82560,N,00911.08150,E,2,09,1.50,149.5,M,47.1,M,,0000*40
$GNGGA,163235.00,4529.82572,N,00911.08138,E,2,09,2.13,149.4,M,47.1,M,,0000*49
$GNGGA,163236.00,4529.82593,N,00911.08117,E,2,09,2.13,149.2,M,47.1,M,,0000*4E
$GNGGA,163237.00,4529.82609,N,00911.08101,E,2,09,2.13,149.0,M,47.1,M,,0000*4A
$GNGGA,163238.00,4529.82618,N,00911.08091,E,2,09,1.50,149.0,M,47.1,M,,0000*49
$GNGGA,163239.00,4529.82615,N,00911.08092,E,2,09,2.13,149.1,M,47.1,M,,0000*43
$GNGGA,163240.00,4529.82618,N,00911.08088,E,2,09,1.50,149.1,M,47.1,M,,0000*4F
$GNGGA,163241.00,4529.82616,N,00911.08088,E,2,09,2.12,149.1,M,47.1,M,,0000*45
$GNGGA,163242.00,4529.82613,N,00911.08088,E,2,09,2.12,149.2,M,47.1,M,,0000*40
$GNGGA,163243.00,4529.82611,N,00911.08088,E,2,09,2.12,149.3,M,47.1,M,,0000*42
$GNGGA,163244.00,4529.82612,N,00911.08086,E,2,09,1.50,149.2,M,47.1,M,,0000*4C
$GNGGA,163245.00,4529.82618,N,00911.08080,E,2,09,2.12,149.2,M,47.1,M,,0000*44
$GNGGA,163246.00,4529.82618,N,00911.08078,E,2,09,1.50,149.2,M,47.1,M,,0000*45
$GNGGA,163247.00,4529.82621,N,00911.08072,E,2,09,1.50,149.2,M,47.1,M,,0000*44
$GNGGA,163248.00,4529.82625,N,00911.08066,E,2,09,2.12,149.2,M,47.1,M,,0000*4F
$GNGGA,163249.00,4529.82636,N,00911.08053,E,2,09,2.12,149.1,M,47.1,M,,0000*49
$GNGGA,163250.00,4529.82646,N,00911.08043,E,2,09,1.50,149.0,M,47.1,M,,0000*43
$GNGGA,163251.00,4529.82658,N,00911.08030,E,2,09,2.12,148.8,M,47.1,M,,0000*45
$GNGGA,163252.00,4529.82671,N,00911.08017,E,2,09,1.50,148.7,M,47.1,M,,0000*42
$GNGGA,163253.00,4529.82688,N,00911.07999,E,2,09,1.50,148.4,M,47.1,M,,0000*46
$GNGGA,163254.00,4529.82707,N,00911.07979,E,2,09,2.12,148.2,M,47.1,M,,0000*4A
$GNGGA,163255.00,4529.82729,N,00911.07957,E,2,09,1.50,148.0,M,47.1,M,,0000*4C
$GNGGA,163256.00,4529.82741,N,00911.07944,E,2,09,1.50,147.8,M,47.1,M,,0000*44
$GNGGA,163257.00,4529.82750,N,00911.07934,E,2,09,2.12,147.7,M,47.1,M,,0000*48
$GNGGA,163258.00,4529.82754,N,00911.07929,E,2,09,1.28,147.7,M,47.1,M,,0000*45
$GNGGA,163259.00,4529.82751,N,00911.07931,E,2,09,1.28,147.7,M,47.1,M,,0000*48
$GNGGA,163300.00,4529.82745,N,00911.07935,E,2,08,2.11,147.7,M,47.1,M,,0000*4C
$GNGGA,163301.00,4529.82730,N,00911.07949,E,2,07,1.99,147.8,M,47.1,M,,0000*47
$GNGGA,163302.00,4529.82716,N,00911.07960,E,2,07,1.99,148.0,M,47.1,M,,0000*4C
$GNGGA,163303.00,4529.82709,N,00911.07967,E,2,08,3.13,148.0,M,47.1,M,,0000*4B
$GNGGA,163304.00,4529.82708,N,00911.07968,E,2,08,1.40,148.0,M,47.1,M,,0000*46
$GNGGA,163305.00,4529.82711,N,00911.07965,E,2,08,1.40,148.0,M,47.1,M,,0000*42
$GNGGA,163306.00,4529.82716,N,00911.07962,E,2,08,3.13,148.0,M,47.1,M,,0000*45
$GNGGA,163307.00,4529.82713,N,00911.07965,E,2,08,1.40,148.0,M,47.1,M,,0000*42
$GNGGA,163308.00,4529.82706,N,00911.07974,E,2,08,1.40,148.1,M,47.1,M,,0000*48
$GNGGA,163309.00,4529.82699,N,00911.07981,E,2,09,1.50,148.2,M,47.1,M,,0000*47
$GNGGA,163310.00,4529.82694,N,00911.07986,E,2,09,1.40,148.3,M,47.1,M,,0000*45
$GNGGA,163311.00,4529.82693,N,00911.07986,E,2,09,1.40,148.3,M,47.1,M,,0000*43
$GNGGA,163312.00,4529.82689,N,00911.07990,E,2,09,1.40,148.3,M,47.1,M,,0000*4C
$GNGGA,163313.00,4529.82682,N,00911.07999,E,2,09,1.40,148.3,M,47.1,M,,0000*4F
$GNGGA,163314.00,4529.82672,N,00911.08011,E,2,09,1.56,148.4,M,47.1,M,,0000*41
$GNGGA,163315.00,4529.82663,N,00911.08021,E,2,09,1.56,148.4,M,47.1,M,,0000*43
$GNGGA,163316.00,4529.82655,N,00911.08031,E,2,09,1.26,148.4,M,47.1,M,,0000*43
$GNGGA,163317.00,4529.82659,N,00911.08028,E,2,09,1.26,148.3,M,47.1,M,,0000*41
$GNGGA,163318.00,4529.82656,N,00911.08031,E,2,09,1.40,148.2,M,47.1,M,,0000*48
$GNGGA,163319.00,4529.82658,N,00911.08030,E,2,09,1.26,148.1,M,47.1,M,,0000*45
$GNGGA,163320.00,4529.82660,N,00911.08030,E,2,09,1.21,148.0,M,47.1,M,,0000*42
$GNGGA,163321.00,4529.82668,N,00911.08022,E,2,09,2.10,147.9,M,47.1,M,,0000*4F
$GNGGA,163322.00,4529.82680,N,00911.08010,E,2,09,1.33,147.7,M,47.1,M,,0000*47
$GNGGA,163323.00,4529.82696,N,00911.07994,E,2,09,1.63,147.4,M,47.1,M,,0000*4D
$GNGGA,163324.00,4529.82709,N,00911.07980,E,2,09,2.10,147.3,M,47.1,M,,0000*48
$GNGGA,163325.00,4529.82728,N,00911.07958,E,2,09,1.50,147.1,M,47.1,M,,0000*4A
$GNGGA,163326.00,4529.82746,N,00911.07939,E,2,09,1.50,146.9,M,47.1,M,,0000*4F
$GNGGA,163327.00,4529.82760,N,00911.07925,E,2,09,2.10,146.7,M,47.1,M,,0000*4E
$GNGGA,163328.00,4529.82764,N,00911.07920,E,2,09,1.33,146.7,M,47.1,M,,0000*42
$GNGGA,163329.00,4529.82770,N,00911.07915,E,2,09,2.10,146.6,M,47.1,M,,0000*43
$GNGGA,163330.00,4529.82768,N,00911.07918,E,2,09,2.10,146.6,M,47.1,M,,0000*4F
$GNGGA,163331.00,4529.82760,N,00911.07927,E,2,09,1.33,146.6,M,47.1,M,,0000*48
$GNGGA,163332.00,4529.82757,N,00911.07930,E,2,09,1.28,146.5,M,47.1,M,,0000*40
$GNGGA,163333.00,4529.82740,N,00911.07949,E,2,09,1.35,146.6,M,47.1,M,,0000*46
$GNGGA,163334.00,4529.82728,N,00911.07961,E,2,09,1.28,146.7,M,47.1,M,,0000*48
$GNGGA,163335.00,4529.82722,N,00911.07967,E,2,09,1.35,146.6,M,47.1,M,,0000*48
$GNGGA,163336.00,4529.82724,N,00911.07965,E,2,09,1.46,146.5,M,47.1,M,,0000*48
$GNGGA,163337.00,4529.82723,N,00911.07966,E,2,09,1.46,146.4,M,47.1,M,,0000*4C
$GNGGA,163338.00,4529.82721,N,00911.07968,E,2,09,1.28,146.4,M,47.1,M,,0000*47
$GNGGA,163339.00,4529.82720,N,00911.07970,E,2,09,1.46,146.3,M,47.1,M,,0000*41
$GNGGA,163340.00,4529.82723,N,00911.07967,E,2,09,1.21,146.3,M,47.1,M,,0000*4B
$GNGGA,163341.00,4529.82724,N,00911.07969,E,2,09,1.27,146.4,M,47.1,M,,0000*42
$GNGGA,163342.00,4529.82725,N,00911.07972,E,2,09,1.46,146.4,M,47.1,M,,0000*4D
$GNGGA,163343.00,4529.82729,N,00911.07971,E,2,09,1.21,146.5,M,47.1,M,,0000*43
$GNGGA,163344.00,4529.82728,N,00911.07975,E,2,09,1.35,146.5,M,47.1,M,,0000*44
$GNGGA,163345.00,4529.82732,N,00911.07973,E,2,09,1.46,146.5,M,47.1,M,,0000*4C
$GNGGA,163346.00,4529.82730,N,00911.07976,E,2,09,1.35,146.5,M,47.1,M,,0000*4C
$GNGGA,163347.00,4529.82727,N,00911.07980,E,2,09,1.21,146.6,M,47.1,M,,0000*44
$GNGGA,163348.00,4529.82726,N,00911.07979,E,2,09,1.55,146.7,M,47.1,M,,0000*4E
$GNGGA,163349.00,4529.82722,N,00911.07984,E,2,09,1.35,146.7,M,47.1,M,,0000*4F
$GNGGA,163350.00,4529.82718,N,00911.07987,E,2,09,1.35,146.8,M,47.1,M,,0000*42
$GNGGA,163351.00,4529.82711,N,00911.07994,E,2,09,1.21,146.8,M,47.1,M,,0000*4D
$GNGGA,163352.00,4529.82707,N,00911.07997,E,2,09,1.21,146.9,M,47.1,M,,0000*4B
$GNGGA,163353.00,4529.82703,N,00911.08000,E,2,09,1.21,146.9,M,47.1,M,,0000*46
$GNGGA,163354.00,4529.82697,N,00911.08007,E,2,09,1.46,146.8,M,47.1,M,,0000*4A
$GNGGA,163355.00,4529.82696,N,00911.08009,E,2,09,1.33,146.8,M,47.1,M,,0000*46
$GNGGA,163356.00,4529.82689,N,00911.08018,E,2,09,1.33,146.9,M,47.1,M,,0000*4A
$GNGGA,163357.00,4529.82685,N,00911.08023,E,2,09,2.08,147.0,M,47.1,M,,0000*4C
$GNGGA,163358.00,4529.82683,N,00911.08028,E,2,08,1.69,147.1,M,47.1,M,,0000*4A
$GNGGA,163359.00,4529.82686,N,00911.08027,E,2,08,1.43,147.1,M,47.1,M,,0000*49
$GNGGA,163400.00,4529.82690,N,00911.08022,E,2,08,3.14,147.1,M,47.1,M,,0000*40
$GNGGA,163401.00,4529.82691,N,00911.08020,E,2,08,1.25,147.2,M,47.1,M,,0000*41
$GNGGA,163402.00,4529.82683,N,00911.08027,E,2,08,1.25,147.3,M,47.1,M,,0000*47
$GNGGA,163403.00,4529.82674,N,00911.08034,E,2,08,1.39,147.5,M,47.1,M,,0000*47
$GNGGA,163404.00,4529.82663,N,00911.08044,E,2,08,1.25,147.7,M,47.1,M,,0000*4E
$GNGGA,163405.00,4529.82650,N,00911.08059,E,2,08,1.25,148.0,M,47.1,M,,0000*4B
$GNGGA,163406.00,4529.82639,N,00911.08073,E,2,08,1.39,148.1,M,47.1,M,,0000*43
$GNGGA,163407.00,4529.82626,N,00911.08088,E,2,08,1.25,148.3,M,47.1,M,,0000*47
$GNGGA,163408.00,4529.82611,N,00911.08108,E,2,08,1.39,148.5,M,47.1,M,,0000*4E
$GNGGA,163409.00,4529.82590,N,00911.08132,E,2,08,1.39,148.8,M,47.1,M,,0000*41
$GNGGA,163410.00,4529.82576,N,00911.08150,E,2,08,1.38,149.1,M,47.1,M,,0000*4C
$GNGGA,163411.00,4529.82570,N,00911.08160,E,2,08,1.25,149.2,M,47.1,M,,0000*47
$GNGGA,163412.00,4529.82564,N,00911.08171,E,2,08,2.01,149.3,M,47.1,M,,0000*45
$GNGGA,163413.00,4529.82565,N,00911.08173,E,2,08,1.39,149.3,M,47.1,M,,0000*4F
$GNGGA,163414.00,4529.82573,N,00911.08166,E,2,08,1.25,149.2,M,47.1,M,,0000*47
$GNGGA,163415.00,4529.82568,N,00911.08169,E,2,08,3.14,149.4,M,47.1,M,,0000*45
$GNGGA,163416.00,4529.82565,N,00911.08168,E,2,09,1.21,149.5,M,47.1,M,,0000*4E
$GNGGA,163417.00,4529.82570,N,00911.08158,E,2,09,1.21,149.6,M,47.1,M,,0000*4B
$GNGGA,163418.00,4529.82576,N,00911.08149,E,2,09,1.34,149.7,M,47.1,M,,0000*47
$GNGGA,163419.00,4529.82586,N,00911.08131,E,2,09,1.21,149.7,M,47.1,M,,0000*42
$GNGGA,163420.00,4529.82590,N,00911.08124,E,2,09,1.34,149.7,M,47.1,M,,0000*4F
$GNGGA,163421.00,4529.82596,N,00911.08116,E,2,09,1.34,149.8,M,47.1,M,,0000*46
$GNGGA,163422.00,4529.82599,N,00911.08104,E,2,09,1.25,149.8,M,47.1,M,,0000*49
$GNGGA,163423.00,4529.82604,N,00911.08093,E,2,09,1.21,149.8,M,47.1,M,,0000*44
$GNGGA,163424.00,4529.82607,N,00911.08085,E,2,09,1.21,149.8,M,47.1,M,,0000*47
$GNGGA,163425.00,4529.82615,N,00911.08073,E,2,09,1.21,149.7,M,47.1,M,,0000*43
$GNGGA,163426.00,4529.82616,N,00911.08069,E,2,09,1.21,149.7,M,47.1,M,,0000*48
$GNGGA,163427.00,4529.82623,N,00911.08054,E,2,08,1.38,149.6,M,47.1,M,,0000*49
$GNGGA,163428.00,4529.82634,N,00911.08037,E,2,08,1.25,149.5,M,47.1,M,,0000*4A
$GNGGA,163429.00,4529.82642,N,00911.08023,E,2,08,1.25,149.5,M,47.1,M,,0000*4F
$GNGGA,163430.00,4529.82662,N,00911.07997,E,2,08,1.38,149.2,M,47.1,M,,0000*47
$GNGGA,163431.00,4529.82681,N,00911.07972,E,2,08,1.38,149.0,M,47.1,M,,0000*42
$GNGGA,163432.00,4529.82697,N,00911.07949,E,2,08,1.25,148.8,M,47.1,M,,0000*4B
$GNGGA,163433.00,4529.82714,N,00911.07925,E,2,08,1.25,148.6,M,47.1,M,,0000*44
$GNGGA,163434.00,4529.82729,N,00911.07906,E,2,08,1.39,148.5,M,47.1,M,,0000*42
$GNGGA,163435.00,4529.82741,N,00911.07891,E,2,08,1.25,148.4,M,47.1,M,,0000*4E
$GNGGA,163436.00,4529.82755,N,00911.07873,E,2,08,1.38,148.3,M,47.1,M,,0000*4F
$GNGGA,163437.00,4529.82760,N,00911.07865,E,2,08,1.25,148.2,M,47.1,M,,0000*42
$GNGGA,163438.00,4529.82764,N,00911.07859,E,2,08,1.25,148.1,M,47.1,M,,0000*45
$GNGGA,163439.00,4529.82765,N,00911.07857,E,2,08,1.54,148.0,M,47.1,M,,0000*4C
$GNGGA,163440.00,4529.82758,N,00911.07865,E,2,08,1.39,148.0,M,47.1,M,,0000*46
$GNGGA,163441.00,4529.82751,N,00911.07873,E,2,08,1.25,147.9,M,47.1,M,,0000*42
$GNGGA,163442.00,4529.82747,N,00911.07878,E,2,08,1.25,147.8,M,47.1,M,,0000*4C
$GNGGA,163443.00,4529.82743,N,00911.07883,E,2,08,1.25,147.8,M,47.1,M,,0000*4D
$GNGGA,163444.00,4529.82750,N,00911.07877,E,2,08,1.25,147.6,M,47.1,M,,0000*4D
$GNGGA,163445.00,4529.82751,N,00911.07877,E,2,08,1.39,147.4,M,47.1,M,,0000*42
$GNGGA,163446.00,4529.82751,N,00911.07878,E,2,08,1.25,147.3,M,47.1,M,,0000*44
$GNGGA,163447.00,4529.82753,N,00911.07878,E,2,08,1.25,147.2,M,47.1,M,,0000*46
$GNGGA,163448.00,4529.82754,N,00911.07879,E,2,08,1.25,147.1,M,47.1,M,,0000*4C
$GNGGA,163449.00,4529.82755,N,00911.07880,E,2,08,1.25,147.1,M,47.1,M,,0000*4A
$GNGGA,163450.00,4529.82746,N,00911.07893,E,2,08,1.25,147.3,M,47.1,M,,0000*40
$GNGGA,163451.00,4529.82739,N,00911.07904,E,2,08,1.25,147.4,M,47.1,M,,0000*41
$GNGGA,163452.00,4529.82733,N,00911.07911,E,2,08,1.25,147.6,M,47.1,M,,0000*4E
$GNGGA,163453.00,4529.82713,N,00911.07935,E,2,08,1.37,147.8,M,47.1,M,,0000*46
$GNGGA,163454.00,4529.82690,N,00911.07960,E,2,08,1.37,148.1,M,47.1,M,,0000*4D
$GNGGA,163455.00,4529.82663,N,00911.07988,E,2,09,1.37,148.4,M,47.1,M,,0000*42
$GNGGA,163456.00,4529.82638,N,00911.08009,E,2,09,1.34,148.7,M,47.1,M,,0000*40
$GNGGA,163457.00,4529.82607,N,00911.08039,E,2,09,1.20,149.0,M,47.1,M,,0000*4D
$GNGGA,163458.00,4529.82579,N,00911.08069,E,2,08,1.39,149.3,M,47.1,M,,0000*47
$GNGGA,163459.00,4529.82556,N,00911.08096,E,2,08,1.53,149.5,M,47.1,M,,0000*41
$GNGGA,163500.00,4529.82537,N,00911.08118,E,2,08,1.53,149.7,M,47.1,M,,0000*4E
$GNGGA,163501.00,4529.82514,N,00911.08145,E,2,08,2.03,149.9,M,47.1,M,,0000*4E
$GNGGA,163502.00,4529.82496,N,00911.08164,E,2,09,3.14,150.1,M,47.1,M,,0000*43
$GNGGA,163503.00,4529.82471,N,00911.08190,E,2,09,2.03,150.3,M,47.1,M,,0000*45
$GNGGA,163504.00,4529.82446,N,00911.08218,E,2,09,2.03,150.6,M,47.1,M,,0000*40
$GNGGA,163505.00,4529.82424,N,00911.08244,E,2,09,1.67,150.8,M,47.1,M,,0000*43
$GNGGA,163506.00,4529.82406,N,00911.08265,E,2,09,1.43,151.0,M,47.1,M,,0000*4C
$GNGGA,163507.00,4529.82381,N,00911.08294,E,2,09,1.43,151.3,M,47.1,M,,0000*48
$GNGGA,163508.00,4529.82358,N,00911.08321,E,2,09,1.43,151.6,M,47.1,M,,0000*49
$GNGGA,163509.00,4529.82327,N,00911.08356,E,2,09,1.43,151.9,M,47.1,M,,0000*4F
$GNGGA,163510.00,4529.82292,N,00911.08394,E,2,09,1.43,152.4,M,47.1,M,,0000*48
$GNGGA,163511.00,4529.82258,N,00911.08432,E,2,09,1.67,152.9,M,47.1,M,,0000*4F
$GNGGA,163512.00,4529.82228,N,00911.08465,E,2,09,1.67,153.2,M,47.1,M,,0000*43
$GNGGA,163513.00,4529.82193,N,00911.08504,E,2,08,1.43,153.6,M,47.1,M,,0000*44
$GNGGA,163514.00,4529.82165,N,00911.08535,E,2,08,1.67,153.9,M,47.1,M,,0000*41
$GNGGA,163515.00,4529.82137,N,00911.08566,E,2,08,1.37,154.2,M,47.1,M,,0000*48
$GNGGA,163516.00,4529.82105,N,00911.08602,E,2,08,1.25,154.5,M,47.1,M,,0000*4F
$GNGGA,163517.00,4529.82072,N,00911.08642,E,2,08,1.37,154.8,M,47.1,M,,0000*45
$GNGGA,163518.00,4529.82041,N,00911.08678,E,2,08,1.25,155.1,M,47.1,M,,0000*48
$GNGGA,163519.00,4529.82010,N,00911.08716,E,2,08,1.25,155.4,M,47.1,M,,0000*41
$GNGGA,163520.00,4529.81993,N,00911.08739,E,2,09,1.37,155.5,M,47.1,M,,0000*44
$GNGGA,163521.00,4529.81988,N,00911.08749,E,2,09,1.20,155.5,M,47.1,M,,0000*4E
$GNGGA,163522.00,4529.81986,N,00911.08755,E,2,09,1.20,155.5,M,47.1,M,,0000*4E
$GNGGA,163523.00,4529.82001,N,00911.08744,E,2,08,1.37,155.3,M,47.1,M,,0000*4B
$GNGGA,163524.00,4529.82020,N,00911.08728,E,2,09,1.20,155.1,M,47.1,M,,0000*40
$GNGGA,163525.00,4529.82038,N,00911.08714,E,2,09,1.20,154.8,M,47.1,M,,0000*4F
$GNGGA,163526.00,4529.82049,N,00911.08702,E,2,09,1.20,154.5,M,47.1,M,,0000*40
$GNGGA,163527.00,4529.82057,N,00911.08694,E,2,09,1.20,154.2,M,47.1,M,,0000*47
$GNGGA,163528.00,4529.82073,N,00911.08677,E,2,09,1.20,153.8,M,47.1,M,,0000*4E
$GNGGA,163529.00,4529.82089,N,00911.08658,E,2,09,1.20,153.4,M,47.1,M,,0000*4B
$GNGGA,163530.00,4529.82100,N,00911.08644,E,2,09,1.20,153.0,M,47.1,M,,0000*4A
$GNGGA,163531.00,4529.82112,N,00911.08629,E,2,09,1.20,152.6,M,47.1,M,,0000*44
$GNGGA,163532.00,4529.82128,N,00911.08609,E,2,09,1.36,152.2,M,47.1,M,,0000*4F
$GNGGA,163533.00,4529.82145,N,00911.08588,E,2,09,1.25,151.7,M,47.1,M,,0000*4B
$GNGGA,163534.00,4529.82170,N,00911.08557,E,2,09,1.25,151.3,M,47.1,M,,0000*4C
$GNGGA,163535.00,4529.82197,N,00911.08526,E,2,09,1.53,150.9,M,47.1,M,,0000*48
$GNGGA,163536.00,4529.82228,N,00911.08488,E,2,09,1.27,150.5,M,47.1,M,,0000*46
$GNGGA,163537.00,4529.82257,N,00911.08453,E,2,09,1.20,150.1,M,47.1,M,,0000*4A
$GNGGA,163538.00,4529.82288,N,00911.08415,E,2,09,1.42,149.8,M,47.1,M,,0000*40
$GNGGA,163539.00,4529.82321,N,00911.08377,E,2,08,1.42,149.5,M,47.1,M,,0000*4C
$GNGGA,163540.00,4529.82355,N,00911.08337,E,2,09,1.33,149.2,M,47.1,M,,0000*45
$GNGGA,163541.00,4529.82388,N,00911.08297,E,2,09,1.42,148.9,M,47.1,M,,0000*43
$GNGGA,163542.00,4529.82423,N,00911.08255,E,2,08,1.42,148.6,M,47.1,M,,0000*46
$GNGGA,163543.00,4529.82453,N,00911.08218,E,2,08,1.42,148.3,M,47.1,M,,0000*4C
$GNGGA,163544.00,4529.82471,N,00911.08195,E,2,08,1.42,148.2,M,47.1,M,,0000*4C
$GNGGA,163545.00,4529.82488,N,00911.08171,E,2,08,1.42,148.0,M,47.1,M,,0000*43
$GNGGA,163546.00,4529.82504,N,00911.08145,E,2,08,1.42,147.8,M,47.1,M,,0000*45
$GNGGA,163547.00,4529.82516,N,00911.08126,E,2,08,1.66,147.7,M,47.1,M,,0000*4B
$GNGGA,163548.00,4529.82526,N,00911.08110,E,2,08,1.36,147.6,M,47.1,M,,0000*46
$GNGGA,163549.00,4529.82537,N,00911.08093,E,2,08,1.24,147.5,M,47.1,M,,0000*4D
$GNGGA,163550.00,4529.82545,N,00911.08079,E,2,08,1.66,147.4,M,47.1,M,,0000*43
$GNGGA,163551.00,4529.82555,N,00911.08064,E,2,08,1.24,147.3,M,47.1,M,,0000*4E
$GNGGA,163552.00,4529.82561,N,00911.08054,E,2,08,1.36,147.2,M,47.1,M,,0000*4B
$GNGGA,163553.00,4529.82569,N,00911.08043,E,2,09,2.89,147.2,M,47.1,M,,0000*42
$GNGGA,163554.00,4529.82574,N,00911.08033,E,2,09,1.22,147.1,M,47.1,M,,0000*4F
$GNGGA,163555.00,4529.82582,N,00911.08021,E,2,09,1.31,147.0,M,47.1,M,,0000*47
$GNGGA,163556.00,4529.82588,N,00911.08012,E,2,09,1.48,146.9,M,47.1,M,,0000*48
$GNGGA,163557.00,4529.82601,N,00911.07997,E,2,09,1.22,146.8,M,47.1,M,,0000*4D
$GNGGA,163558.00,4529.82613,N,00911.07983,E,2,09,1.48,146.7,M,47.1,M,,0000*47
$GNGGA,163559.00,4529.82627,N,00911.07968,E,2,09,1.48,146.5,M,47.1,M,,0000*46
$GNGGA,163600.00,4529.82640,N,00911.07954,E,2,09,1.30,146.4,M,47.1,M,,0000*49
$GNGGA,163601.00,4529.82643,N,00911.07951,E,2,09,1.22,146.4,M,47.1,M,,0000*4D
$GNGGA,163602.00,4529.82643,N,00911.07951,E,2,09,1.48,146.4,M,47.1,M,,0000*42
$GNGGA,163603.00,4529.82642,N,00911.07951,E,2,09,1.30,146.4,M,47.1,M,,0000*4D
$GNGGA,163604.00,4529.82644,N,00911.07949,E,2,09,1.22,146.4,M,47.1,M,,0000*46
$GNGGA,163605.00,4529.82640,N,00911.07954,E,2,09,1.48,146.4,M,47.1,M,,0000*43
$GNGGA,163606.00,4529.82638,N,00911.07958,E,2,09,1.22,146.4,M,47.1,M,,0000*4F
$GNGGA,163607.00,4529.82637,N,00911.07964,E,2,09,1.22,146.4,M,47.1,M,,0000*4E
$GNGGA,163608.00,4529.82640,N,00911.07964,E,2,09,2.88,146.4,M,47.1,M,,0000*42
$GNGGA,163609.00,4529.82650,N,00911.07958,E,2,09,1.34,146.3,M,47.1,M,,0000*4E
$GNGGA,163610.00,4529.82657,N,00911.07955,E,2,09,1.34,146.2,M,47.1,M,,0000*4D
$GNGGA,163611.00,4529.82663,N,00911.07953,E,2,10,1.48,146.1,M,47.1,M,,0000*4D
$GNGGA,163612.00,4529.82673,N,00911.07947,E,2,10,1.48,146.0,M,47.1,M,,0000*4B
$GNGGA,163613.00,4529.82679,N,00911.07946,E,2,10,1.22,145.9,M,47.1,M,,0000*47
$GNGGA,163614.00,4529.82687,N,00911.07944,E,2,10,1.48,145.8,M,47.1,M,,0000*4E
$GNGGA,163615.00,4529.82697,N,00911.07940,E,2,10,1.21,145.7,M,47.1,M,,0000*4A
