$GNGGA,120911.00,4529.83193,N,00911.07649,E,1,07,1.87,121.1,M,47.1,M,,*4F
$GNGGA,120912.00,4529.83162,N,00911.07694,E,1,07,1.87,121.8,M,47.1,M,,*4B
$GNGGA,120913.00,4529.83141,N,00911.07728,E,1,07,1.87,122.3,M,47.1,M,,*45
$GNGGA,120914.00,4529.83123,N,00911.07762,E,1,07,1.87,122.7,M,47.1,M,,*4C
$GNGGA,120915.00,4529.83109,N,00911.07787,E,1,07,1.87,123.1,M,47.1,M,,*49
$GNGGA,120916.00,4529.83090,N,00911.07814,E,1,07,1.87,123.6,M,47.1,M,,*49
$GNGGA,120917.00,4529.83072,N,00911.07843,E,1,07,1.87,124.1,M,47.1,M,,*46
$GNGGA,120918.00,4529.83067,N,00911.07861,E,1,07,1.87,124.3,M,47.1,M,,*4F
$GNGGA,120919.00,4529.83062,N,00911.07874,E,1,07,1.87,124.4,M,47.1,M,,*48
$GNGGA,120920.00,4529.83050,N,00911.07891,E,1,07,1.87,124.8,M,47.1,M,,*44
$GNGGA,120921.00,4529.83034,N,00911.07908,E,1,07,1.87,125.2,M,47.1,M,,*4D
$GNGGA,120922.00,4529.83025,N,00911.07923,E,1,07,1.87,125.4,M,47.1,M,,*41
$GNGGA,120923.00,4529.83012,N,00911.07939,E,1,07,1.87,125.8,M,47.1,M,,*43
$GNGGA,120924.00,4529.83006,N,00911.07951,E,1,07,1.87,126.0,M,47.1,M,,*44
$GNGGA,120925.00,4529.83003,N,00911.07961,E,1,07,1.87,126.2,M,47.1,M,,*41
$GNGGA,120926.00,4529.82997,N,00911.07972,E,1,07,1.87,126.4,M,47.1,M,,*43
$GNGGA,120927.00,4529.82988,N,00911.07985,E,1,07,1.87,126.7,M,47.1,M,,*47
$GNGGA,120928.00,4529.82982,N,00911.07997,E,1,07,1.87,126.9,M,47.1,M,,*4F
$GNGGA,120929.00,4529.82975,N,00911.08009,E,1,07,1.87,127.1,M,47.1,M,,*4E
$GNGGA,120930.00,4529.82968,N,00911.08017,E,1,07,1.87,127.3,M,47.1,M,,*47
$GNGGA,120931.00,4529.82976,N,00911.08016,E,1,07,1.87,127.2,M,47.1,M,,*49
$GNGGA,120932.00,4529.82974,N,00911.08022,E,1,07,1.87,127.3,M,47.1,M,,*4E
$GNGGA,120933.00,4529.82970,N,00911.08025,E,1,07,1.87,127.5,M,47.1,M,,*4A
$GNGGA,120934.00,4529.82987,N,00911.08018,E,1,07,1.87,127.2,M,47.1,M,,*4C
$GNGGA,120935.00,4529.82994,N,00911.08017,E,1,07,1.87,127.1,M,47.1,M,,*43
$GNGGA,120936.00,4529.82993,N,00911.08021,E,1,07,1.87,127.2,M,47.1,M,,*41
$GNGGA,120937.00,4529.82994,N,00911.08023,E,1,07,1.87,127.2,M,47.1,M,,*45
$GNGGA,120938.00,4529.82995,N,00911.08024,E,1,07,1.87,127.2,M,47.1,M,,*4C
$GNGGA,120939.00,4529.83003,N,00911.08021,E,1,07,1.87,127.0,M,47.1,M,,*4D
$GNGGA,120940.00,4529.83019,N,00911.08012,E,1,07,1.87,126.8,M,47.1,M,,*41
$GNGGA,120941.00,4529.83026,N,00911.08010,E,1,07,1.87,126.7,M,47.1,M,,*41
$GNGGA,120942.00,4529.83033,N,00911.08007,E,1,07,1.87,126.6,M,47.1,M,,*41
$GNGGA,120943.00,4529.83040,N,00911.08006,E,1,07,1.87,126.4,M,47.1,M,,*47
$GNGGA,120944.00,4529.83044,N,00911.08008,E,1,07,1.87,126.4,M,47.1,M,,*4A
$GNGGA,120945.00,4529.83048,N,00911.08008,E,1,07,1.87,126.3,M,47.1,M,,*40
$GNGGA,120946.00,4529.83054,N,00911.08008,E,1,07,1.87,126.2,M,47.1,M,,*4F
$GNGGA,120947.00,4529.83052,N,00911.08013,E,1,07,1.87,126.3,M,47.1,M,,*43
$GNGGA,120948.00,4529.83057,N,00911.08011,E,1,07,1.76,126.1,M,47.1,M,,*47
$GNGGA,120949.00,4529.83059,N,00911.08014,E,1,07,1.76,126.0,M,47.1,M,,*4C
$GNGGA,120950.00,4529.83062,N,00911.08012,E,1,07,1.76,126.0,M,47.1,M,,*4A
$GNGGA,120951.00,4529.83065,N,00911.08010,E,1,07,1.76,125.9,M,47.1,M,,*44
$GNGGA,120952.00,4529.83062,N,00911.08015,E,1,07,1.76,125.8,M,47.1,M,,*44
$GNGGA,120953.00,4529.83072,N,00911.08007,E,1,07,1.76,125.6,M,47.1,M,,*49
$GNGGA,120954.00,4529.83080,N,00911.08002,E,1,07,1.76,125.5,M,47.1,M,,*45
$GNGGA,120955.00,4529.83083,N,00911.08001,E,2,07,1.76,125.3,M,47.1,M,,0000*41
$GNGGA,120956.00,4529.83089,N,00911.07999,E,2,07,1.76,125.2,M,47.1,M,,0000*4E
$GNGGA,120957.00,4529.83089,N,00911.08002,E,2,07,1.76,125.1,M,47.1,M,,0000*48
$GNGGA,120958.00,4529.83090,N,00911.08003,E,2,07,1.76,125.1,M,47.1,M,,0000*4E
$GNGGA,120959.00,4529.83088,N,00911.08005,E,2,07,1.76,125.1,M,47.1,M,,0000*40
$GNGGA,121000.00,4529.83091,N,00911.08003,E,2,07,1.76,125.0,M,47.1,M,,0000*4B
$GNGGA,121001.00,4529.83089,N,00911.08006,E,2,07,1.76,125.0,M,47.1,M,,0000*46
$GNGGA,121002.00,4529.83082,N,00911.08013,E,2,07,1.76,125.0,M,47.1,M,,0000*4A
$GNGGA,121003.00,4529.83080,N,00911.08015,E,2,07,1.76,125.0,M,47.1,M,,0000*4F
$GNGGA,121004.00,4529.83085,N,00911.08013,E,2,07,1.76,124.8,M,47.1,M,,0000*42
$GNGGA,121005.00,4529.83079,N,00911.08022,E,2,07,1.76,124.9,M,47.1,M,,0000*43
$GNGGA,121006.00,4529.83074,N,00911.08028,E,2,07,1.76,124.9,M,47.1,M,,0000*47
$GNGGA,121007.00,4529.83068,N,00911.08035,E,2,07,1.76,124.9,M,47.1,M,,0000*47
$GNGGA,121008.00,4529.83079,N,00911.08000,E,2,07,2.73,124.9,M,47.1,M,,0000*48
$GNGGA,121009.00,4529.83076,N,00911.08007,E,2,07,1.76,124.9,M,47.1,M,,0000*47
$GNGGA,121010.00,4529.83070,N,00911.08014,E,2,07,1.76,125.0,M,47.1,M,,0000*43
$GNGGA,121011.00,4529.83063,N,00911.08027,E,2,07,1.76,125.1,M,47.1,M,,0000*41
$GNGGA,121012.00,4529.83056,N,00911.08041,E,2,07,1.76,125.2,M,47.1,M,,0000*47
$GNGGA,121013.00,4529.83051,N,00911.08056,E,2,07,1.76,125.2,M,47.1,M,,0000*47
$GNGGA,121014.00,4529.83047,N,00911.08069,E,2,07,1.76,125.2,M,47.1,M,,0000*4B
$GNGGA,121015.00,4529.83043,N,00911.08081,E,2,07,1.76,125.2,M,47.1,M,,0000*48
$GNGGA,121016.00,4529.83043,N,00911.08090,E,2,07,1.76,125.1,M,47.1,M,,0000*48
$GNGGA,121017.00,4529.83033,N,00911.08107,E,2,07,1.76,125.3,M,47.1,M,,0000*43
$GNGGA,121018.00,4529.83021,N,00911.08122,E,2,07,1.76,125.5,M,47.1,M,,0000*4E
$GNGGA,121019.00,4529.83017,N,00911.08130,E,2,07,1.76,125.5,M,47.1,M,,0000*49
$GNGGA,121020.00,4529.83004,N,00911.08149,E,2,07,1.76,125.7,M,47.1,M,,0000*4D
$GNGGA,121021.00,4529.82996,N,00911.08161,E,2,07,1.76,125.8,M,47.1,M,,0000*4A
$GNGGA,121022.00,4529.82973,N,00911.08181,E,2,07,1.76,126.1,M,47.1,M,,0000*46
$GNGGA,121023.00,4529.82947,N,00911.08203,E,2,07,1.76,126.6,M,47.1,M,,0000*4E
$GNGGA,121024.00,4529.82931,N,00911.08216,E,2,07,1.76,126.8,M,47.1,M,,0000*42
$GNGGA,121025.00,4529.82908,N,00911.08239,E,2,07,1.76,127.2,M,47.1,M,,0000*4F
$GNGGA,121026.00,4529.82887,N,00911.08261,E,2,07,1.76,127.6,M,47.1,M,,0000*43
$GNGGA,121027.00,4529.82867,N,00911.08283,E,2,07,1.76,127.9,M,47.1,M,,0000*4F
$GNGGA,121028.00,4529.82852,N,00911.08299,E,2,07,1.76,128.2,M,47.1,M,,0000*49
$GNGGA,121029.00,4529.82837,N,00911.08315,E,2,07,1.76,128.4,M,47.1,M,,0000*48
$GNGGA,121030.00,4529.82816,N,00911.08339,E,2,07,1.76,128.7,M,47.1,M,,0000*4E
$GNGGA,121031.00,4529.82750,N,00911.08428,E,2,08,1.27,129.8,M,47.1,M,,0000*40
$GNGGA,121032.00,4529.82689,N,00911.08512,E,2,08,1.27,130.8,M,47.1,M,,0000*46
$GNGGA,121033.00,4529.82631,N,00911.08587,E,2,08,1.27,131.8,M,47.1,M,,0000*49
$GNGGA,121034.00,4529.82576,N,00911.08679,E,2,08,1.27,132.7,M,47.1,M,,0000*40
$GNGGA,121035.00,4529.82530,N,00911.08752,E,2,08,1.27,133.5,M,47.1,M,,0000*48
$GNGGA,121036.00,4529.82494,N,00911.08806,E,2,08,1.27,134.1,M,47.1,M,,0000*49
$GNGGA,121037.00,4529.82460,N,00911.08864,E,2,08,1.27,134.8,M,47.1,M,,0000*4E
$GNGGA,121038.00,4529.82422,N,00911.08918,E,2,09,1.26,135.5,M,47.1,M,,0000*41
$GNGGA,121039.00,4529.82385,N,00911.08970,E,2,09,1.26,136.3,M,47.1,M,,0000*41
$GNGGA,121040.00,4529.82357,N,00911.09014,E,2,09,1.26,136.8,M,47.1,M,,0000*41
$GNGGA,121041.00,4529.82332,N,00911.09053,E,2,09,1.26,137.4,M,47.1,M,,0000*4D
$GNGGA,121042.00,4529.82304,N,00911.09090,E,2,09,1.26,137.9,M,47.1,M,,0000*49
$GNGGA,121043.00,4529.82279,N,00911.09121,E,2,09,1.26,138.5,M,47.1,M,,0000*4B
$GNGGA,121044.00,4529.82262,N,00911.09146,E,2,09,1.26,138.8,M,47.1,M,,0000*4A
$GNGGA,121045.00,4529.82246,N,00911.09173,E,2,09,1.26,139.2,M,47.1,M,,0000*40
$GNGGA,121046.00,4529.82230,N,00911.09196,E,2,09,1.26,139.5,M,47.1,M,,0000*4E
$GNGGA,121047.00,4529.82209,N,00911.09222,E,2,09,1.26,139.9,M,47.1,M,,0000*45
$GNGGA,121048.00,4529.82191,N,00911.09248,E,2,09,1.26,140.2,M,47.1,M,,0000*41
$GNGGA,121049.00,4529.82176,N,00911.09275,E,2,09,1.26,140.6,M,47.1,M,,0000*43
$GNGGA,121050.00,4529.82158,N,00911.09298,E,2,09,1.26,140.9,M,47.1,M,,0000*4B
$GNGGA,121051.00,4529.82144,N,00911.09314,E,2,09,1.26,141.2,M,47.1,M,,0000*48
$GNGGA,121052.00,4529.82128,N,00911.09333,E,2,09,1.26,141.6,M,47.1,M,,0000*40
$GNGGA,121053.00,4529.82115,N,00911.09351,E,2,09,1.26,141.9,M,47.1,M,,0000*44
$GNGGA,121054.00,4529.82102,N,00911.09366,E,2,09,1.26,142.1,M,47.1,M,,0000*4A
$GNGGA,121055.00,4529.82089,N,00911.09381,E,2,09,1.26,142.4,M,47.1,M,,0000*45
$GNGGA,121056.00,4529.82075,N,00911.09399,E,2,09,1.26,142.7,M,47.1,M,,0000*4F
$GNGGA,121057.00,4529.82061,N,00911.09417,E,2,09,1.26,143.1,M,47.1,M,,0000*4D
$GNGGA,121058.00,4529.82043,N,00911.09436,E,2,09,1.26,143.4,M,47.1,M,,0000*44
$GNGGA,121059.00,4529.82028,N,00911.09453,E,2,09,1.26,143.8,M,47.1,M,,0000*47
$GNGGA,121100.00,4529.82018,N,00911.09468,E,2,09,1.26,144.0,M,47.1,M,,0000*4E
$GNGGA,121101.00,4529.82010,N,00911.09480,E,2,09,1.26,144.2,M,47.1,M,,0000*43
$GNGGA,121102.00,4529.82004,N,00911.09491,E,2,09,1.26,144.3,M,47.1,M,,0000*44
$GNGGA,121103.00,4529.81994,N,00911.09506,E,2,09,1.26,144.6,M,47.1,M,,0000*4C
$GNGGA,121104.00,4529.81981,N,00911.09524,E,2,09,1.26,144.9,M,47.1,M,,0000*40
$GNGGA,121105.00,4529.81970,N,00911.09540,E,2,09,1.26,145.1,M,47.1,M,,0000*44
$GNGGA,121106.00,4529.81962,N,00911.09553,E,2,09,1.26,145.2,M,47.1,M,,0000*45
$GNGGA,121107.00,4529.81952,N,00911.09563,E,2,09,1.26,145.4,M,47.1,M,,0000*42
$GNGGA,121108.00,4529.81943,N,00911.09573,E,2,09,1.26,145.7,M,47.1,M,,0000*4F
$GNGGA,121109.00,4529.81940,N,00911.09580,E,2,09,1.26,145.7,M,47.1,M,,0000*41
$GNGGA,121110.00,4529.81936,N,00911.09587,E,2,09,1.26,145.8,M,47.1,M,,0000*40
$GNGGA,121111.00,4529.81933,N,00911.09592,E,2,09,1.26,145.9,M,47.1,M,,0000*41
$GNGGA,121112.00,4529.81929,N,00911.09598,E,2,09,1.26,146.0,M,47.1,M,,0000*49
$GNGGA,121113.00,4529.81925,N,00911.09603,E,2,09,1.26,146.1,M,47.1,M,,0000*44
$GNGGA,121114.00,4529.81922,N,00911.09608,E,2,09,1.26,146.2,M,47.1,M,,0000*4C
$GNGGA,121115.00,4529.81917,N,00911.09615,E,2,09,1.26,146.3,M,47.1,M,,0000*46
$GNGGA,121116.00,4529.81917,N,00911.09615,E,2,09,1.26,146.3,M,47.1,M,,0000*45
$GNGGA,121117.00,4529.81919,N,00911.09616,E,2,09,1.26,146.3,M,47.1,M,,0000*49
$GNGGA,121118.00,4529.81915,N,00911.09621,E,2,09,1.26,146.4,M,47.1,M,,0000*49
$GNGGA,121119.00,4529.81912,N,00911.09624,E,2,09,1.26,146.4,M,47.1,M,,0000*4A
$GNGGA,121120.00,4529.81906,N,00911.09629,E,2,09,1.26,146.6,M,47.1,M,,0000*4A
$GNGGA,121121.00,4529.81904,N,00911.09629,E,2,09,1.26,146.7,M,47.1,M,,0000*48
$GNGGA,121122.00,4529.81900,N,00911.09631,E,2,09,1.26,146.8,M,47.1,M,,0000*49
$GNGGA,121123.00,4529.81903,N,00911.09629,E,2,09,1.26,146.8,M,47.1,M,,0000*42
$GNGGA,121124.00,4529.81905,N,00911.09628,E,2,09,1.26,146.8,M,47.1,M,,0000*42
$GNGGA,121125.00,4529.81901,N,00911.09629,E,2,09,1.26,146.9,M,47.1,M,,0000*47
$GNGGA,121126.00,4529.81897,N,00911.09631,E,2,09,1.26,147.1,M,47.1,M,,0000*4A
$GNGGA,121127.00,4529.81897,N,00911.09631,E,2,09,1.26,147.1,M,47.1,M,,0000*4B
$GNGGA,121128.00,4529.81898,N,00911.09631,E,2,09,1.26,147.2,M,47.1,M,,0000*48
$GNGGA,121129.00,4529.81899,N,00911.09631,E,2,09,1.26,147.3,M,47.1,M,,0000*49
$GNGGA,121130.00,4529.81899,N,00911.09631,E,2,09,1.26,147.3,M,47.1,M,,0000*41
$GNGGA,121131.00,4529.81898,N,00911.09632,E,2,09,1.26,147.4,M,47.1,M,,0000*45
$GNGGA,121132.00,4529.81893,N,00911.09636,E,2,09,1.26,147.6,M,47.1,M,,0000*4B
$GNGGA,121133.00,4529.81891,N,00911.09634,E,2,09,1.26,147.7,M,47.1,M,,0000*4B
$GNGGA,121134.00,4529.81893,N,00911.09629,E,2,09,1.26,147.7,M,47.1,M,,0000*42
$GNGGA,121135.00,4529.81894,N,00911.09627,E,2,09,1.26,147.7,M,47.1,M,,0000*4A
$GNGGA,121136.00,4529.81893,N,00911.09626,E,2,09,1.26,147.8,M,47.1,M,,0000*40
$GNGGA,121137.00,4529.81886,N,00911.09629,E,2,09,1.26,148.0,M,47.1,M,,0000*4D
$GNGGA,121138.00,4529.81885,N,00911.09627,E,2,09,1.26,148.0,M,47.1,M,,0000*4F
$GNGGA,121139.00,4529.81884,N,00911.09624,E,2,09,1.26,148.0,M,47.1,M,,0000*4C
$GNGGA,121140.00,4529.81891,N,00911.09616,E,2,09,1.26,147.9,M,47.1,M,,0000*41
$GNGGA,121141.00,4529.81890,N,00911.09615,E,2,09,1.26,148.0,M,47.1,M,,0000*44
$GNGGA,121142.00,4529.81885,N,00911.09616,E,2,09,1.26,148.1,M,47.1,M,,0000*41
$GNGGA,121143.00,4529.81888,N,00911.09609,E,2,09,1.26,148.1,M,47.1,M,,0000*43
$GNGGA,121144.00,4529.81888,N,00911.09607,E,2,09,1.26,148.1,M,47.1,M,,0000*4A
$GNGGA,121145.00,4529.81886,N,00911.09607,E,2,09,1.26,148.1,M,47.1,M,,0000*45
$GNGGA,121146.00,4529.81887,N,00911.09603,E,2,09,1.26,148.1,M,47.1,M,,0000*43
$GNGGA,121147.00,4529.81883,N,00911.09604,E,2,09,1.26,148.2,M,47.1,M,,0000*42
$GNGGA,121148.00,4529.81881,N,00911.09603,E,2,09,1.26,148.2,M,47.1,M,,0000*48
$GNGGA,121149.00,4529.81883,N,00911.09598,E,2,09,1.26,148.2,M,47.1,M,,0000*4A
$GNGGA,121150.00,4529.81873,N,00911.09608,E,2,09,1.26,148.3,M,47.1,M,,0000*46
$GNGGA,121151.00,4529.81876,N,00911.09605,E,2,09,1.26,148.3,M,47.1,M,,0000*4F
$GNGGA,121152.00,4529.81877,N,00911.09604,E,2,09,1.26,148.2,M,47.1,M,,0000*4D
$GNGGA,121153.00,4529.81872,N,00911.09607,E,2,09,1.26,148.3,M,47.1,M,,0000*4B
$GNGGA,121154.00,4529.81864,N,00911.09611,E,2,09,1.26,148.4,M,47.1,M,,0000*4B
$GNGGA,121155.00,4529.81849,N,00911.09622,E,2,09,1.26,148.7,M,47.1,M,,0000*46
$GNGGA,121156.00,4529.81835,N,00911.09634,E,2,09,1.32,148.9,M,47.1,M,,0000*42
$GNGGA,121157.00,4529.81817,N,00911.09649,E,2,09,1.32,149.2,M,47.1,M,,0000*43
$GNGGA,121158.00,4529.81803,N,00911.09660,E,2,09,1.32,149.5,M,47.1,M,,0000*45
$GNGGA,121159.00,4529.81800,N,00911.09663,E,2,09,1.32,149.5,M,47.1,M,,0000*44
$GNGGA,121200.00,4529.81796,N,00911.09666,E,2,09,1.32,149.5,M,47.1,M,,0000*4E
$GNGGA,121201.00,4529.81793,N,00911.09669,E,2,09,1.32,149.6,M,47.1,M,,0000*46
$GNGGA,121202.00,4529.81793,N,00911.09671,E,2,09,1.32,149.5,M,47.1,M,,0000*4F
$GNGGA,121203.00,4529.81793,N,00911.09672,E,2,09,1.32,149.5,M,47.1,M,,0000*4D
$GNGGA,121204.00,4529.81800,N,00911.09671,E,2,09,1.32,149.3,M,47.1,M,,0000*4A
$GNGGA,121205.00,4529.81785,N,00911.09682,E,2,09,1.32,149.6,M,47.1,M,,0000*40
$GNGGA,121206.00,4529.81788,N,00911.09681,E,2,09,1.32,149.5,M,47.1,M,,0000*4E
$GNGGA,121207.00,4529.81768,N,00911.09696,E,2,09,1.32,149.8,M,47.1,M,,0000*4A
$GNGGA,121208.00,4529.81763,N,00911.09703,E,2,09,1.32,149.8,M,47.1,M,,0000*43
$GNGGA,121209.00,4529.81778,N,00911.09698,E,2,09,1.32,149.5,M,47.1,M,,0000*46
$GNGGA,121210.00,4529.81772,N,00911.09708,E,2,09,1.26,149.5,M,47.1,M,,0000*49
$GNGGA,121211.00,4529.81762,N,00911.09718,E,2,09,1.32,149.6,M,47.1,M,,0000*4E
$GNGGA,121212.00,4529.81755,N,00911.09726,E,2,09,1.32,149.7,M,47.1,M,,0000*45
$GNGGA,121213.00,4529.81747,N,00911.09735,E,2,09,1.32,149.8,M,47.1,M,,0000*4A
$GNGGA,121214.00,4529.81741,N,00911.09743,E,2,09,1.32,149.8,M,47.1,M,,0000*4A
$GNGGA,121215.00,4529.81725,N,00911.09758,E,2,09,1.32,150.0,M,47.1,M,,0000*43
$GNGGA,121216.00,4529.81725,N,00911.09763,E,2,09,1.32,149.9,M,47.1,M,,0000*49
$GNGGA,121217.00,4529.81719,N,00911.09769,E,2,09,1.32,149.9,M,47.1,M,,0000*4D
$GNGGA,121218.00,4529.81723,N,00911.09768,E,2,09,1.32,149.8,M,47.1,M,,0000*4B
$GNGGA,121219.00,4529.81740,N,00911.09759,E,2,09,1.32,149.3,M,47.1,M,,0000*46
$GNGGA,121220.00,4529.81726,N,00911.09769,E,2,09,1.32,149.5,M,47.1,M,,0000*49
$GNGGA,121221.00,4529.81713,N,00911.09777,E,2,09,1.32,149.7,M,47.1,M,,0000*43
$GNGGA,121222.00,4529.81718,N,00911.09773,E,2,09,1.32,149.5,M,47.1,M,,0000*4D
$GNGGA,121223.00,4529.81700,N,00911.09785,E,2,09,1.32,149.8,M,47.1,M,,0000*41
$GNGGA,121224.00,4529.81694,N,00911.09788,E,2,09,1.32,149.8,M,47.1,M,,0000*47
$GNGGA,121225.00,4529.81699,N,00911.09784,E,2,09,1.32,149.6,M,47.1,M,,0000*49
$GNGGA,121226.00,4529.81698,N,00911.09782,E,2,09,1.32,149.5,M,47.1,M,,0000*4E
$GNGGA,121227.00,4529.81683,N,00911.09791,E,2,09,1.32,149.8,M,47.1,M,,0000*4A
$GNGGA,121228.00,4529.81684,N,00911.09788,E,2,09,1.32,149.7,M,47.1,M,,0000*45
$GNGGA,121229.00,4529.81678,N,00911.09790,E,2,09,1.32,149.7,M,47.1,M,,0000*4E
$GNGGA,121230.00,4529.81655,N,00911.09805,E,2,09,1.32,150.1,M,47.1,M,,0000*44
$GNGGA,121231.00,4529.81641,N,00911.09812,E,2,09,1.32,150.3,M,47.1,M,,0000*44
$GNGGA,121232.00,4529.81661,N,00911.09796,E,2,09,1.32,149.8,M,47.1,M,,0000*45
$GNGGA,121233.00,4529.81669,N,00911.09788,E,2,09,1.32,149.6,M,47.1,M,,0000*4D
$GNGGA,121234.00,4529.81667,N,00911.09788,E,2,09,1.32,149.5,M,47.1,M,,0000*47
$GNGGA,121235.00,4529.81710,N,00911.09753,E,2,09,1.32,148.6,M,47.1,M,,0000*43
$GNGGA,121236.00,4529.81713,N,00911.09749,E,2,09,1.32,148.5,M,47.1,M,,0000*4B
$GNGGA,121237.00,4529.81725,N,00911.09739,E,2,09,1.32,148.2,M,47.1,M,,0000*4F
$GNGGA,121238.00,4529.81743,N,00911.09726,E,2,09,1.32,147.7,M,47.1,M,,0000*44
$GNGGA,121239.00,4529.81768,N,00911.09709,E,2,09,1.41,146.3,M,47.1,M,,0000*40
$GNGGA,121240.00,4529.81769,N,00911.09708,E,2,09,1.41,145.6,M,47.1,M,,0000*48
$GNGGA,121241.00,4529.81786,N,00911.09695,E,2,09,1.41,144.7,M,47.1,M,,0000*4D
$GNGGA,121242.00,4529.81792,N,00911.09690,E,2,09,1.41,144.1,M,47.1,M,,0000*48
$GNGGA,121243.00,4529.81820,N,00911.09568,E,2,09,1.41,143.5,M,47.1,M,,0000*48
$GNGGA,121244.00,4529.81866,N,00911.09448,E,2,09,1.41,142.6,M,47.1,M,,0000*4C
$GNGGA,121245.00,4529.81904,N,00911.09350,E,2,09,1.41,141.9,M,47.1,M,,0000*4A
$GNGGA,121246.00,4529.81949,N,00911.09261,E,2,09,1.41,141.1,M,47.1,M,,0000*4B
$GNGGA,121247.00,4529.81970,N,00911.09199,E,2,09,1.41,140.7,M,47.1,M,,0000*43
$GNGGA,121248.00,4529.81993,N,00911.09140,E,2,09,1.41,140.3,M,47.1,M,,0000*41
$GNGGA,121249.00,4529.82021,N,00911.09084,E,2,09,1.41,139.8,M,47.1,M,,0000*4F
$GNGGA,121250.00,4529.82044,N,00911.09037,E,2,09,1.41,139.3,M,47.1,M,,0000*47
$GNGGA,121251.00,4529.82074,N,00911.08990,E,2,09,1.41,138.7,M,47.1,M,,0000*45
$GNGGA,121252.00,4529.82097,N,00911.08950,E,2,09,1.41,138.3,M,47.1,M,,0000*43
$GNGGA,121253.00,4529.82116,N,00911.08917,E,2,09,1.41,137.9,M,47.1,M,,0000*4C
$GNGGA,121254.00,4529.82142,N,00911.08881,E,2,09,1.41,137.4,M,47.1,M,,0000*49
$GNGGA,121255.00,4529.82170,N,00911.08845,E,2,09,1.41,136.9,M,47.1,M,,0000*4D
$GNGGA,121256.00,4529.82197,N,00911.08812,E,2,09,1.41,136.4,M,47.1,M,,0000*48
$GNGGA,121257.00,4529.82200,N,00911.08793,E,2,09,2.77,136.4,M,47.1,M,,0000*44
$GNGGA,121258.00,4529.82223,N,00911.08762,E,2,09,1.41,136.0,M,47.1,M,,0000*46
$GNGGA,121259.00,4529.82247,N,00911.08735,E,2,08,2.77,135.6,M,47.1,M,,0000*45
$GNGGA,121300.00,4529.82264,N,00911.08714,E,2,09,2.77,135.4,M,47.1,M,,0000*49
$GNGGA,121301.00,4529.82305,N,00911.08673,E,2,09,1.41,134.6,M,47.1,M,,0000*4B
$GNGGA,121302.00,4529.82346,N,00911.08633,E,2,09,1.41,133.9,M,47.1,M,,0000*43
$GNGGA,121303.00,4529.82384,N,00911.08592,E,2,09,2.77,133.5,M,47.1,M,,0000*4E
$GNGGA,121304.00,4529.82433,N,00911.08532,E,2,09,1.41,133.1,M,47.1,M,,0000*4A
$GNGGA,121305.00,4529.82470,N,00911.08488,E,2,09,1.41,132.8,M,47.1,M,,0000*44
$GNGGA,121306.00,4529.82522,N,00911.08435,E,2,08,2.77,132.2,M,47.1,M,,0000*4A
$GNGGA,121307.00,4529.82565,N,00911.08395,E,2,08,2.77,131.7,M,47.1,M,,0000*43
$GNGGA,121308.00,4529.82601,N,00911.08359,E,2,08,2.77,131.3,M,47.1,M,,0000*49
$GNGGA,121309.00,4529.82636,N,00911.08323,E,2,08,2.77,131.0,M,47.1,M,,0000*42
$GNGGA,121310.00,4529.82679,N,00911.08277,E,2,08,2.77,130.5,M,47.1,M,,0000*45
$GNGGA,121311.00,4529.82725,N,00911.08230,E,2,08,2.77,129.9,M,47.1,M,,0000*4B
$GNGGA,121312.00,4529.82776,N,00911.08179,E,2,08,2.77,129.2,M,47.1,M,,0000*4B
$GNGGA,121313.00,4529.82814,N,00911.08138,E,2,08,1.85,128.8,M,47.1,M,,0000*41
$GNGGA,121314.00,4529.82857,N,00911.08092,E,2,08,1.85,128.3,M,47.1,M,,0000*4B
$GNGGA,121315.00,4529.82889,N,00911.08057,E,2,09,1.35,127.9,M,47.1,M,,0000*4F
$GNGGA,121316.00,4529.82923,N,00911.08021,E,2,09,1.35,127.4,M,47.1,M,,0000*41
$GNGGA,121317.00,4529.82956,N,00911.07985,E,2,09,1.35,126.8,M,47.1,M,,0000*47
$GNGGA,121318.00,4529.82928,N,00911.08037,E,2,09,1.85,128.1,M,47.1,M,,0000*42
$GNGGA,121319.00,4529.82902,N,00911.08083,E,2,09,1.35,129.3,M,47.1,M,,0000*4C
$GNGGA,121320.00,4529.82904,N,00911.08106,E,2,09,1.35,129.8,M,47.1,M,,0000*47
$GNGGA,121321.00,4529.82929,N,00911.08136,E,2,09,1.85,130.1,M,47.1,M,,0000*40
$GNGGA,121322.00,4529.82937,N,00911.08169,E,2,09,1.35,130.6,M,47.1,M,,0000*4A
$GNGGA,121323.00,4529.82963,N,00911.08183,E,2,09,1.35,130.7,M,47.1,M,,0000*4F
$GNGGA,121324.00,4529.82997,N,00911.08187,E,2,09,1.32,130.6,M,47.1,M,,0000*41
$GNGGA,121325.00,4529.83021,N,00911.08195,E,2,09,1.41,130.7,M,47.1,M,,0000*43
$GNGGA,121326.00,4529.83060,N,00911.08193,E,2,09,1.32,130.4,M,47.1,M,,0000*44
$GNGGA,121327.00,4529.83097,N,00911.08189,E,2,09,1.32,130.1,M,47.1,M,,0000*43
$GNGGA,121328.00,4529.83101,N,00911.08205,E,2,09,2.77,130.4,M,47.1,M,,0000*42
$GNGGA,121329.00,4529.83079,N,00911.08247,E,2,09,1.41,131.4,M,47.1,M,,0000*4C
$GNGGA,121330.00,4529.83071,N,00911.08273,E,2,09,1.41,132.0,M,47.1,M,,0000*4C
$GNGGA,121331.00,4529.83012,N,00911.08327,E,2,09,2.76,133.3,M,47.1,M,,0000*4D
$GNGGA,121332.00,4529.83057,N,00911.08298,E,2,09,1.25,132.7,M,47.1,M,,0000*4A
$GNGGA,121333.00,4529.83043,N,00911.08317,E,2,09,1.25,133.2,M,47.1,M,,0000*4C
$GNGGA,121334.00,4529.83045,N,00911.08331,E,2,09,1.25,133.6,M,47.1,M,,0000*4D
$GNGGA,121335.00,4529.83039,N,00911.08343,E,2,10,1.27,133.9,M,47.1,M,,0000*47
$GNGGA,121336.00,4529.83009,N,00911.08373,E,2,10,1.27,134.6,M,47.1,M,,0000*4C
$GNGGA,121337.00,4529.83033,N,00911.08361,E,2,10,1.25,134.3,M,47.1,M,,0000*40
$GNGGA,121338.00,4529.83019,N,00911.08380,E,2,10,1.32,134.7,M,47.1,M,,0000*4A
$GNGGA,121339.00,4529.83009,N,00911.08392,E,2,10,1.32,135.0,M,47.1,M,,0000*4F
$GNGGA,121340.00,4529.82992,N,00911.08411,E,2,10,1.32,135.4,M,47.1,M,,0000*43
$GNGGA,121341.00,4529.82974,N,00911.08431,E,2,10,1.32,135.8,M,47.1,M,,0000*44
$GNGGA,121342.00,4529.82956,N,00911.08450,E,2,10,1.32,136.2,M,47.1,M,,0000*49
$GNGGA,121343.00,4529.82954,N,00911.08454,E,2,10,2.59,136.3,M,47.1,M,,0000*41
$GNGGA,121344.00,4529.82949,N,00911.08461,E,2,10,1.32,136.4,M,47.1,M,,0000*45
$GNGGA,121345.00,4529.82955,N,00911.08458,E,2,10,1.32,136.3,M,47.1,M,,0000*44
$GNGGA,121346.00,4529.82952,N,00911.08461,E,2,10,1.32,136.3,M,47.1,M,,0000*4A
$GNGGA,121347.00,4529.82979,N,00911.08443,E,2,10,1.27,135.8,M,47.1,M,,0000*4E
$GNGGA,121348.00,4529.82982,N,00911.08449,E,2,10,1.27,135.8,M,47.1,M,,0000*4F
$GNGGA,121349.00,4529.83002,N,00911.08441,E,2,10,1.32,135.4,M,47.1,M,,0000*4E
$GNGGA,121350.00,4529.83026,N,00911.08425,E,2,10,1.27,134.9,M,47.1,M,,0000*4A
$GNGGA,121351.00,4529.83029,N,00911.08426,E,2,10,2.04,134.8,M,47.1,M,,0000*44
$GNGGA,121352.00,4529.83027,N,00911.08430,E,2,10,2.04,134.7,M,47.1,M,,0000*41
$GNGGA,121353.00,4529.83016,N,00911.08448,E,2,10,2.04,134.7,M,47.1,M,,0000*4D
$GNGGA,121354.00,4529.83003,N,00911.08466,E,2,10,2.04,134.6,M,47.1,M,,0000*43
$GNGGA,121355.00,4529.82969,N,00911.08498,E,2,10,2.04,135.0,M,47.1,M,,0000*40
$GNGGA,121356.00,4529.82952,N,00911.08516,E,2,10,2.04,135.1,M,47.1,M,,0000*4D
$GNGGA,121357.00,4529.82945,N,00911.08527,E,2,10,2.04,135.0,M,47.1,M,,0000*49
$GNGGA,121358.00,4529.82934,N,00911.08538,E,2,10,1.52,135.0,M,47.1,M,,0000*4E
$GNGGA,121359.00,4529.82911,N,00911.08560,E,2,10,1.52,135.2,M,47.1,M,,0000*47
$GNGGA,121400.00,4529.82903,N,00911.08571,E,2,10,1.52,135.2,M,47.1,M,,0000*4F
$GNGGA,121401.00,4529.82924,N,00911.08558,E,2,10,1.51,134.7,M,47.1,M,,0000*47
$GNGGA,121402.00,4529.82899,N,00911.08584,E,2,10,1.20,134.9,M,47.1,M,,0000*4A
$GNGGA,121403.00,4529.82858,N,00911.08621,E,2,10,1.20,135.5,M,47.1,M,,0000*47
$GNGGA,121404.00,4529.82843,N,00911.08637,E,2,10,1.20,135.6,M,47.1,M,,0000*4E
$GNGGA,121405.00,4529.82845,N,00911.08641,E,2,10,1.51,135.4,M,47.1,M,,0000*4C
$GNGGA,121406.00,4529.82833,N,00911.08655,E,2,10,1.51,135.3,M,47.1,M,,0000*4C
$GNGGA,121407.00,4529.82829,N,00911.08663,E,2,10,1.51,135.1,M,47.1,M,,0000*41
$GNGGA,121408.00,4529.82809,N,00911.08681,E,2,10,1.51,135.3,M,47.1,M,,0000*42
$GNGGA,121409.00,4529.82780,N,00911.08707,E,2,10,2.04,135.6,M,47.1,M,,0000*44
$GNGGA,121410.00,4529.82756,N,00911.08732,E,2,10,2.04,135.8,M,47.1,M,,0000*4F
$GNGGA,121411.00,4529.82730,N,00911.08757,E,2,10,2.07,136.2,M,47.1,M,,0000*47
$GNGGA,121412.00,4529.82703,N,00911.08780,E,2,10,2.07,136.6,M,47.1,M,,0000*4A
$GNGGA,121413.00,4529.82685,N,00911.08799,E,2,10,2.07,136.9,M,47.1,M,,0000*43
$GNGGA,121414.00,4529.82667,N,00911.08818,E,2,10,2.06,137.1,M,47.1,M,,0000*46
$GNGGA,121415.00,4529.82659,N,00911.08828,E,2,10,1.53,137.2,M,47.1,M,,0000*49
$GNGGA,121416.00,4529.82642,N,00911.08846,E,2,10,1.53,137.4,M,47.1,M,,0000*4E
$GNGGA,121417.00,4529.82628,N,00911.08859,E,2,10,1.53,137.6,M,47.1,M,,0000*4F
$GNGGA,121418.00,4529.82610,N,00911.08875,E,2,10,1.53,137.9,M,47.1,M,,0000*4A
$GNGGA,121419.00,4529.82597,N,00911.08891,E,2,10,1.53,138.0,M,47.1,M,,0000*4B
$GNGGA,121420.00,4529.82579,N,00911.08909,E,2,10,1.53,138.3,M,47.1,M,,0000*42
$GNGGA,121421.00,4529.82557,N,00911.08930,E,2,10,1.53,138.6,M,47.1,M,,0000*40
$GNGGA,121422.00,4529.82537,N,00911.08948,E,2,10,1.53,138.8,M,47.1,M,,0000*44
$GNGGA,121423.00,4529.82511,N,00911.08971,E,2,10,1.20,139.2,M,47.1,M,,0000*44
$GNGGA,121424.00,4529.82489,N,00911.08991,E,2,10,1.20,139.6,M,47.1,M,,0000*49
$GNGGA,121425.00,4529.82465,N,00911.09015,E,2,10,1.20,139.9,M,47.1,M,,0000*41
$GNGGA,121426.00,4529.82448,N,00911.09030,E,2,10,1.20,140.1,M,47.1,M,,0000*4C
$GNGGA,121427.00,4529.82427,N,00911.09046,E,2,10,1.53,140.4,M,47.1,M,,0000*44
$GNGGA,121428.00,4529.82404,N,00911.09066,E,2,10,1.20,140.8,M,47.1,M,,0000*40
$GNGGA,121429.00,4529.82379,N,00911.09084,E,2,10,1.20,141.2,M,47.1,M,,0000*4B
$GNGGA,121430.00,4529.82344,N,00911.09112,E,2,10,1.20,141.8,M,47.1,M,,0000*49
$GNGGA,121431.00,4529.82315,N,00911.09132,E,2,10,1.20,142.2,M,47.1,M,,0000*47
$GNGGA,121432.00,4529.82289,N,00911.09155,E,2,10,1.20,142.6,M,47.1,M,,0000*45
$GNGGA,121433.00,4529.82262,N,00911.09180,E,2,10,1.53,143.0,M,47.1,M,,0000*4A
$GNGGA,121434.00,4529.82245,N,00911.09191,E,2,10,1.20,143.2,M,47.1,M,,0000*4E
$GNGGA,121435.00,4529.82232,N,00911.09202,E,2,10,1.20,143.3,M,47.1,M,,0000*47
$GNGGA,121436.00,4529.82222,N,00911.09210,E,2,10,1.53,143.4,M,47.1,M,,0000*45
$GNGGA,121437.00,4529.82212,N,00911.09218,E,2,09,1.53,143.5,M,47.1,M,,0000*46
$GNGGA,121438.00,4529.82204,N,00911.09227,E,2,09,1.53,143.5,M,47.1,M,,0000*42
$GNGGA,121439.00,4529.82201,N,00911.09233,E,2,09,1.53,143.4,M,47.1,M,,0000*42
$GNGGA,121440.00,4529.82197,N,00911.09240,E,2,09,2.06,143.4,M,47.1,M,,0000*47
$GNGGA,121441.00,4529.82190,N,00911.09246,E,2,09,2.06,143.5,M,47.1,M,,0000*46
$GNGGA,121442.00,4529.82184,N,00911.09253,E,2,09,2.06,143.6,M,47.1,M,,0000*47
$GNGGA,121443.00,4529.82189,N,00911.09252,E,2,10,1.27,143.4,M,47.1,M,,0000*40
$GNGGA,121444.00,4529.82189,N,00911.09254,E,2,10,1.27,143.4,M,47.1,M,,0000*41
$GNGGA,121445.00,4529.82179,N,00911.09266,E,2,10,2.06,143.6,M,47.1,M,,0000*4C
$GNGGA,121446.00,4529.82176,N,00911.09272,E,2,10,1.27,143.6,M,47.1,M,,0000*45
$GNGGA,121447.00,4529.82181,N,00911.09266,E,2,10,1.20,143.4,M,47.1,M,,0000*4C
$GNGGA,121448.00,4529.82185,N,00911.09259,E,2,10,1.20,143.3,M,47.1,M,,0000*4C
$GNGGA,121449.00,4529.82184,N,00911.09258,E,2,10,1.20,143.3,M,47.1,M,,0000*4D
$GNGGA,121450.00,4529.82179,N,00911.09262,E,2,09,1.51,143.4,M,47.1,M,,0000*47
$GNGGA,121451.00,4529.82172,N,00911.09266,E,2,10,1.20,143.6,M,47.1,M,,0000*45
$GNGGA,121452.00,4529.82170,N,00911.09266,E,2,10,1.20,143.6,M,47.1,M,,0000*44
$GNGGA,121453.00,4529.82183,N,00911.09254,E,2,10,1.20,143.4,M,47.1,M,,0000*4A
$GNGGA,121454.00,4529.82194,N,00911.09242,E,2,09,1.52,143.2,M,47.1,M,,0000*47
$GNGGA,121455.00,4529.82207,N,00911.09232,E,2,10,1.20,143.0,M,47.1,M,,0000*47
$GNGGA,121456.00,4529.82234,N,00911.09208,E,2,10,1.20,142.5,M,47.1,M,,0000*49
$GNGGA,121457.00,4529.82250,N,00911.09197,E,2,10,1.20,142.3,M,47.1,M,,0000*49
$GNGGA,121458.00,4529.82257,N,00911.09194,E,2,09,1.25,142.4,M,47.1,M,,0000*48
$GNGGA,121459.00,4529.82273,N,00911.09179,E,2,10,1.20,142.6,M,47.1,M,,0000*43
$GNGGA,121500.00,4529.82298,N,00911.09157,E,2,10,1.20,142.8,M,47.1,M,,0000*49
$GNGGA,121501.00,4529.82309,N,00911.09148,E,2,10,1.20,143.1,M,47.1,M,,0000*47
$GNGGA,121502.00,4529.82312,N,00911.09143,E,2,10,1.20,143.6,M,47.1,M,,0000*42
$GNGGA,121503.00,4529.82344,N,00911.09106,E,2,10,1.20,143.4,M,47.1,M,,0000*43
$GNGGA,121504.00,4529.82344,N,00911.09100,E,2,10,1.20,143.8,M,47.1,M,,0000*4E
$GNGGA,121505.00,4529.82357,N,00911.09085,E,2,10,1.20,144.0,M,47.1,M,,0000*4E
$GNGGA,121506.00,4529.82377,N,00911.09064,E,2,10,1.20,144.0,M,47.1,M,,0000*40
$GNGGA,121507.00,4529.82400,N,00911.09044,E,2,10,1.20,143.9,M,47.1,M,,0000*4A
$GNGGA,121508.00,4529.82376,N,00911.09061,E,2,10,1.20,144.7,M,47.1,M,,0000*4D
$GNGGA,121509.00,4529.82407,N,00911.09030,E,2,10,1.20,144.4,M,47.1,M,,0000*4A
$GNGGA,121510.00,4529.82407,N,00911.09024,E,2,10,1.17,144.8,M,47.1,M,,0000*4F
$GNGGA,121511.00,4529.82400,N,00911.09026,E,2,10,1.17,145.0,M,47.1,M,,0000*42
$GNGGA,121512.00,4529.82398,N,00911.09022,E,2,10,2.01,145.2,M,47.1,M,,0000*45
$GNGGA,121513.00,4529.82377,N,00911.09037,E,2,10,1.24,145.7,M,47.1,M,,0000*40
$GNGGA,121514.00,4529.82347,N,00911.09061,E,2,10,1.24,146.4,M,47.1,M,,0000*47
$GNGGA,121515.00,4529.82324,N,00911.09077,E,2,10,1.24,146.9,M,47.1,M,,0000*49
$GNGGA,121516.00,4529.82292,N,00911.09103,E,2,10,1.24,147.6,M,47.1,M,,0000*4A
$GNGGA,121517.00,4529.82275,N,00911.09115,E,2,10,1.24,148.0,M,47.1,M,,0000*4C
$GNGGA,121518.00,4529.82260,N,00911.09123,E,2,10,1.24,148.5,M,47.1,M,,0000*47
$GNGGA,121519.00,4529.82245,N,00911.09134,E,2,10,1.24,148.9,M,47.1,M,,0000*4B
$GNGGA,121520.00,4529.82223,N,00911.09152,E,2,10,1.24,149.5,M,47.1,M,,0000*4C
$GNGGA,121521.00,4529.82213,N,00911.09161,E,2,10,1.24,149.8,M,47.1,M,,0000*43
$GNGGA,121522.00,4529.82202,N,00911.09168,E,2,10,1.24,150.1,M,47.1,M,,0000*48
$GNGGA,121523.00,4529.82194,N,00911.09173,E,2,10,1.24,150.5,M,47.1,M,,0000*4B
$GNGGA,121524.00,4529.82195,N,00911.09169,E,2,10,1.24,150.6,M,47.1,M,,0000*45
$GNGGA,121525.00,4529.82189,N,00911.09171,E,2,10,1.24,150.9,M,47.1,M,,0000*4F
$GNGGA,121526.00,4529.82181,N,00911.09173,E,2,10,1.24,151.2,M,47.1,M,,0000*4C
$GNGGA,121527.00,4529.82176,N,00911.09172,E,2,10,1.24,151.4,M,47.1,M,,0000*42
$GNGGA,121528.00,4529.82168,N,00911.09175,E,2,10,1.24,151.8,M,47.1,M,,0000*49
$GNGGA,121529.00,4529.82164,N,00911.09178,E,2,10,1.24,152.0,M,47.1,M,,0000*42
$GNGGA,121530.00,4529.82170,N,00911.09167,E,2,10,1.24,152.0,M,47.1,M,,0000*41
$GNGGA,121531.00,4529.82176,N,00911.09158,E,2,10,1.24,152.0,M,47.1,M,,0000*4A
$GNGGA,121532.00,4529.82173,N,00911.09162,E,2,10,1.24,152.2,M,47.1,M,,0000*47
$GNGGA,121533.00,4529.82168,N,00911.09169,E,2,10,1.24,152.5,M,47.1,M,,0000*40
$GNGGA,121534.00,4529.82171,N,00911.09168,E,2,10,1.24,152.6,M,47.1,M,,0000*4D
$GNGGA,121535.00,4529.82175,N,00911.09167,E,2,10,1.24,152.5,M,47.1,M,,0000*44
$GNGGA,121536.00,4529.82179,N,00911.09164,E,2,10,1.24,152.5,M,47.1,M,,0000*48
$GNGGA,121537.00,4529.82180,N,00911.09163,E,2,10,1.24,152.5,M,47.1,M,,0000*48
$GNGGA,121538.00,4529.82184,N,00911.09157,E,2,10,1.24,152.5,M,47.1,M,,0000*44
$GNGGA,121539.00,4529.82190,N,00911.09150,E,2,10,1.24,152.4,M,47.1,M,,0000*46
$GNGGA,121540.00,4529.82199,N,00911.09139,E,2,10,1.24,152.2,M,47.1,M,,0000*48
$GNGGA,121541.00,4529.82209,N,00911.09128,E,2,10,1.24,152.1,M,47.1,M,,0000*40
$GNGGA,121542.00,4529.82214,N,00911.09123,E,2,10,1.24,151.9,M,47.1,M,,0000*4F
$GNGGA,121543.00,4529.82216,N,00911.09117,E,2,10,1.24,151.8,M,47.1,M,,0000*4A
$GNGGA,121544.00,4529.82224,N,00911.09106,E,2,10,1.24,151.6,M,47.1,M,,0000*42
$GNGGA,121545.00,4529.82232,N,00911.09098,E,2,10,1.24,151.3,M,47.1,M,,0000*47
$GNGGA,121546.00,4529.82224,N,00911.09109,E,2,10,1.24,151.3,M,47.1,M,,0000*4A
$GNGGA,121547.00,4529.82221,N,00911.09113,E,2,10,1.24,151.2,M,47.1,M,,0000*44
$GNGGA,121548.00,4529.82225,N,00911.09107,E,2,10,1.24,151.0,M,47.1,M,,0000*48
$GNGGA,121549.00,4529.82228,N,00911.09100,E,2,10,1.24,150.8,M,47.1,M,,0000*4A
$GNGGA,121550.00,4529.82234,N,00911.09091,E,2,10,1.24,150.6,M,47.1,M,,0000*48
$GNGGA,121551.00,4529.82241,N,00911.09081,E,2,10,1.24,150.3,M,47.1,M,,0000*4F
$GNGGA,121552.00,4529.82249,N,00911.09073,E,2,09,1.17,150.0,M,47.1,M,,0000*42
$GNGGA,121553.00,4529.82260,N,00911.09062,E,2,10,1.17,149.6,M,47.1,M,,0000*4E
$GNGGA,121554.00,4529.82261,N,00911.09060,E,2,10,1.17,149.4,M,47.1,M,,0000*48
$GNGGA,121555.00,4529.82268,N,00911.09051,E,2,10,1.17,149.2,M,47.1,M,,0000*44
$GNGGA,121556.00,4529.82272,N,00911.09046,E,2,10,1.17,148.9,M,47.1,M,,0000*40
$GNGGA,121557.00,4529.82267,N,00911.09049,E,2,10,1.17,148.7,M,47.1,M,,0000*44
$GNGGA,121558.00,4529.82265,N,00911.09049,E,2,09,1.47,148.6,M,47.1,M,,0000*45
$GNGGA,121559.00,4529.82264,N,00911.09050,E,2,10,1.17,148.3,M,47.1,M,,0000*45
$GNGGA,121600.00,4529.82259,N,00911.09058,E,2,10,1.17,148.3,M,47.1,M,,0000*4C
$GNGGA,121601.00,4529.82261,N,00911.09053,E,2,09,1.17,148.1,M,47.1,M,,0000*47
$GNGGA,121602.00,4529.82263,N,00911.09050,E,2,09,1.17,148.0,M,47.1,M,,0000*44
$GNGGA,121603.00,4529.82260,N,00911.09051,E,2,10,1.17,148.0,M,47.1,M,,0000*4F
$GNGGA,121604.00,4529.82257,N,00911.09050,E,2,10,1.17,148.0,M,47.1,M,,0000*4D
$GNGGA,121605.00,4529.82260,N,00911.09043,E,2,10,1.17,147.9,M,47.1,M,,0000*4C
$GNGGA,121606.00,4529.82256,N,00911.09047,E,2,10,1.17,147.9,M,47.1,M,,0000*4E
$GNGGA,121607.00,4529.82258,N,00911.09044,E,2,10,1.17,147.8,M,47.1,M,,0000*43
$GNGGA,121608.00,4529.82255,N,00911.09046,E,2,10,1.17,147.8,M,47.1,M,,0000*43
$GNGGA,121609.00,4529.82262,N,00911.09038,E,2,10,1.17,147.7,M,47.1,M,,0000*40
$GNGGA,121610.00,4529.82263,N,00911.09037,E,2,10,1.47,147.6,M,47.1,M,,0000*42
$GNGGA,121611.00,4529.82268,N,00911.09034,E,2,10,1.49,147.5,M,47.1,M,,0000*46
$GNGGA,121612.00,4529.82270,N,00911.09031,E,2,10,1.49,147.4,M,47.1,M,,0000*48
$GNGGA,121613.00,4529.82265,N,00911.09037,E,2,10,1.49,147.4,M,47.1,M,,0000*4B
$GNGGA,121614.00,4529.82269,N,00911.09032,E,2,10,1.49,147.2,M,47.1,M,,0000*43
$GNGGA,121615.00,4529.82264,N,00911.09039,E,2,09,1.49,147.3,M,47.1,M,,0000*4D
$GNGGA,121616.00,4529.82263,N,00911.09042,E,2,10,1.47,147.3,M,47.1,M,,0000*43
$GNGGA,121617.00,4529.82260,N,00911.09050,E,2,10,1.49,147.3,M,47.1,M,,0000*4C
$GNGGA,121618.00,4529.82263,N,00911.09049,E,2,10,1.49,147.1,M,47.1,M,,0000*4A
$GNGGA,121619.00,4529.82257,N,00911.09060,E,2,09,1.49,147.2,M,47.1,M,,0000*4C
$GNGGA,121620.00,4529.82261,N,00911.09060,E,2,10,1.49,147.1,M,47.1,M,,0000*48
$GNGGA,121621.00,4529.82261,N,00911.09064,E,2,10,1.49,147.0,M,47.1,M,,0000*4C
$GNGGA,121622.00,4529.82262,N,00911.09068,E,2,10,1.49,147.0,M,47.1,M,,0000*40
$GNGGA,121623.00,4529.82259,N,00911.09079,E,2,10,1.49,147.0,M,47.1,M,,0000*49
$GNGGA,121624.00,4529.82265,N,00911.09079,E,2,10,1.47,146.9,M,47.1,M,,0000*47
$GNGGA,121625.00,4529.82262,N,00911.09086,E,2,11,1.41,146.9,M,47.1,M,,0000*46
$GNGGA,121626.00,4529.82255,N,00911.09098,E,2,11,1.41,147.0,M,47.1,M,,0000*46
$GNGGA,121627.00,4529.82247,N,00911.09112,E,2,11,1.41,147.1,M,47.1,M,,0000*46
$GNGGA,121628.00,4529.82238,N,00911.09130,E,2,11,1.41,147.2,M,47.1,M,,0000*42
$GNGGA,121629.00,4529.82232,N,00911.09140,E,2,11,1.41,147.3,M,47.1,M,,0000*4F
$GNGGA,121630.00,4529.82225,N,00911.09156,E,2,11,1.16,147.4,M,47.1,M,,0000*43
$GNGGA,121631.00,4529.82207,N,00911.09184,E,2,12,1.16,147.6,M,47.1,M,,0000*4C
$GNGGA,121632.00,4529.82203,N,00911.09198,E,2,11,1.09,147.7,M,47.1,M,,0000*4A
$GNGGA,121633.00,4529.82200,N,00911.09206,E,2,11,1.31,147.8,M,47.1,M,,0000*48
$GNGGA,121634.00,4529.82192,N,00911.09217,E,2,11,1.31,147.9,M,47.1,M,,0000*46
$GNGGA,121635.00,4529.82197,N,00911.09218,E,2,11,1.36,147.8,M,47.1,M,,0000*4B
$GNGGA,121636.00,4529.82197,N,00911.09227,E,2,11,1.36,147.8,M,47.1,M,,0000*44
$GNGGA,121637.00,4529.82194,N,00911.09235,E,2,11,1.36,147.9,M,47.1,M,,0000*44
$GNGGA,121638.00,4529.82188,N,00911.09247,E,2,11,1.81,148.1,M,47.1,M,,0000*48
$GNGGA,121639.00,4529.82181,N,00911.09257,E,2,11,1.81,148.3,M,47.1,M,,0000*43
$GNGGA,121640.00,4529.82171,N,00911.09270,E,2,11,1.49,148.5,M,47.1,M,,0000*45
$GNGGA,121641.00,4529.82169,N,00911.09273,E,2,11,1.49,148.6,M,47.1,M,,0000*4D
$GNGGA,121642.00,4529.82172,N,00911.09276,E,2,11,1.49,148.6,M,47.1,M,,0000*41
$GNGGA,121643.00,4529.82173,N,00911.09279,E,2,11,1.49,148.6,M,47.1,M,,0000*4E
$GNGGA,121644.00,4529.82171,N,00911.09286,E,2,11,1.49,148.7,M,47.1,M,,0000*4A
$GNGGA,121645.00,4529.82170,N,00911.09292,E,2,11,1.49,148.7,M,47.1,M,,0000*4F
$GNGGA,121646.00,4529.82172,N,00911.09291,E,2,11,1.49,148.8,M,47.1,M,,0000*42
$GNGGA,121647.00,4529.82181,N,00911.09278,E,2,11,1.49,149.0,M,47.1,M,,0000*41
$GNGGA,121648.00,4529.82188,N,00911.09267,E,2,11,1.49,149.2,M,47.1,M,,0000*4B
$GNGGA,121649.00,4529.82192,N,00911.09261,E,2,11,1.49,149.3,M,47.1,M,,0000*46
$GNGGA,121650.00,4529.82198,N,00911.09254,E,2,12,1.47,149.4,M,47.1,M,,0000*48
$GNGGA,121651.00,4529.82198,N,00911.09253,E,2,12,1.99,149.6,M,47.1,M,,0000*4F
$GNGGA,121652.00,4529.82196,N,00911.09255,E,2,12,1.99,149.7,M,47.1,M,,0000*45
$GNGGA,121653.00,4529.82189,N,00911.09261,E,2,11,1.99,149.9,M,47.1,M,,0000*40
$GNGGA,121654.00,4529.82185,N,00911.09261,E,2,12,1.74,150.1,M,47.1,M,,0000*4B
$GNGGA,121655.00,4529.82182,N,00911.09262,E,2,11,1.99,150.3,M,47.1,M,,0000*4C
$GNGGA,121656.00,4529.82177,N,00911.09266,E,2,11,1.47,150.5,M,47.1,M,,0000*44
$GNGGA,121657.00,4529.82153,N,00911.09281,E,2,12,1.29,151.0,M,47.1,M,,0000*45
$GNGGA,121658.00,4529.82127,N,00911.09301,E,2,12,1.33,151.5,M,47.1,M,,0000*4E
$GNGGA,121659.00,4529.82103,N,00911.09320,E,2,12,1.29,152.0,M,47.1,M,,0000*47
$GNGGA,121700.00,4529.82084,N,00911.09333,E,2,12,1.29,152.4,M,47.1,M,,0000*42
$GNGGA,121701.00,4529.82067,N,00911.09344,E,2,12,1.33,152.8,M,47.1,M,,0000*49
$GNGGA,121702.00,4529.82063,N,00911.09340,E,2,12,1.29,152.9,M,47.1,M,,0000*40
$GNGGA,121703.00,4529.82059,N,00911.09338,E,2,12,1.32,153.1,M,47.1,M,,0000*44
$GNGGA,121704.00,4529.82059,N,00911.09328,E,2,12,1.32,153.2,M,47.1,M,,0000*41
$GNGGA,121705.00,4529.82058,N,00911.09322,E,2,12,1.32,153.4,M,47.1,M,,0000*4D
$GNGGA,121706.00,4529.82060,N,00911.09317,E,2,12,1.32,153.5,M,47.1,M,,0000*42
$GNGGA,121707.00,4529.82060,N,00911.09312,E,2,12,1.38,153.7,M,47.1,M,,0000*4E
$GNGGA,121708.00,4529.82060,N,00911.09307,E,2,12,1.31,153.9,M,47.1,M,,0000*42
$GNGGA,121709.00,4529.82061,N,00911.09301,E,2,12,1.31,154.0,M,47.1,M,,0000*4A
$GNGGA,121710.00,4529.82056,N,00911.09304,E,2,12,1.38,154.3,M,47.1,M,,0000*49
$GNGGA,121711.00,4529.82050,N,00911.09302,E,2,11,1.31,154.6,M,47.1,M,,0000*47
$GNGGA,121712.00,4529.82048,N,00911.09296,E,2,12,1.31,154.8,M,47.1,M,,0000*4C
$GNGGA,121713.00,4529.82045,N,00911.09291,E,2,11,1.38,155.0,M,47.1,M,,0000*44
$GNGGA,121714.00,4529.82047,N,00911.09280,E,2,12,1.29,155.1,M,47.1,M,,0000*43
$GNGGA,121715.00,4529.82043,N,00911.09280,E,2,12,1.29,155.3,M,47.1,M,,0000*44
$GNGGA,121716.00,4529.82035,N,00911.09282,E,2,12,1.29,155.6,M,47.1,M,,0000*41
$GNGGA,121717.00,4529.82030,N,00911.09279,E,2,12,1.29,155.9,M,47.1,M,,0000*4E
$GNGGA,121718.00,4529.82016,N,00911.09289,E,2,12,1.29,156.2,M,47.1,M,,0000*42
$GNGGA,121719.00,4529.82005,N,00911.09295,E,2,12,1.29,156.5,M,47.1,M,,0000*4B
$GNGGA,121720.00,4529.82005,N,00911.09291,E,2,12,1.29,156.7,M,47.1,M,,0000*47
$GNGGA,121721.00,4529.81994,N,00911.09296,E,2,12,1.29,156.9,M,47.1,M,,0000*4D
$GNGGA,121722.00,4529.81986,N,00911.09296,E,2,12,1.29,157.1,M,47.1,M,,0000*44
$GNGGA,121723.00,4529.81982,N,00911.09293,E,2,12,1.29,157.3,M,47.1,M,,0000*46
$GNGGA,121724.00,4529.81977,N,00911.09291,E,2,12,1.29,157.4,M,47.1,M,,0000*4E
$GNGGA,121725.00,4529.81977,N,00911.09286,E,2,12,1.29,157.5,M,47.1,M,,0000*48
$GNGGA,121726.00,4529.81976,N,00911.09284,E,2,12,1.29,157.6,M,47.1,M,,0000*4B
$GNGGA,121727.00,4529.81973,N,00911.09284,E,2,12,1.29,157.7,M,47.1,M,,0000*4E
$GNGGA,121728.00,4529.81971,N,00911.09283,E,2,12,1.29,157.8,M,47.1,M,,0000*4B
$GNGGA,121729.00,4529.81972,N,00911.09281,E,2,12,1.29,157.8,M,47.1,M,,0000*4B
$GNGGA,121730.00,4529.81967,N,00911.09284,E,2,12,1.29,157.9,M,47.1,M,,0000*43
$GNGGA,121731.00,4529.81957,N,00911.09290,E,2,12,1.29,158.1,M,47.1,M,,0000*43
$GNGGA,121732.00,4529.81948,N,00911.09295,E,2,12,1.29,158.2,M,47.1,M,,0000*48
$GNGGA,121733.00,4529.81938,N,00911.09302,E,2,12,1.29,158.4,M,47.1,M,,0000*47
$GNGGA,121734.00,4529.81925,N,00911.09312,E,2,12,1.29,158.6,M,47.1,M,,0000*4F
$GNGGA,121735.00,4529.81911,N,00911.09324,E,2,12,1.29,158.8,M,47.1,M,,0000*42
$GNGGA,121736.00,4529.81895,N,00911.09340,E,2,12,1.29,159.1,M,47.1,M,,0000*46
$GNGGA,121737.00,4529.81877,N,00911.09359,E,2,12,1.29,159.3,M,47.1,M,,0000*41
$GNGGA,121738.00,4529.81860,N,00911.09377,E,2,12,1.28,159.6,M,47.1,M,,0000*40
$GNGGA,121739.00,4529.81848,N,00911.09390,E,2,12,1.40,159.7,M,47.1,M,,0000*4D
$GNGGA,121740.00,4529.81837,N,00911.09403,E,2,12,1.40,159.7,M,47.1,M,,0000*46
$GNGGA,121741.00,4529.81833,N,00911.09410,E,2,12,1.41,159.7,M,47.1,M,,0000*40
$GNGGA,121742.00,4529.81829,N,00911.09417,E,2,12,1.41,159.6,M,47.1,M,,0000*4E
$GNGGA,121743.00,4529.81824,N,00911.09424,E,2,12,1.40,159.6,M,47.1,M,,0000*43
$GNGGA,121744.00,4529.81817,N,00911.09435,E,2,12,1.41,159.6,M,47.1,M,,0000*45
$GNGGA,121745.00,4529.81809,N,00911.09443,E,2,12,1.30,159.6,M,47.1,M,,0000*4C
$GNGGA,121746.00,4529.81792,N,00911.09463,E,2,12,1.30,159.8,M,47.1,M,,0000*4E
$GNGGA,121747.00,4529.81789,N,00911.09466,E,2,12,1.30,159.8,M,47.1,M,,0000*40
$GNGGA,121748.00,4529.81788,N,00911.09467,E,2,12,1.30,159.8,M,47.1,M,,0000*4F
$GNGGA,121749.00,4529.81784,N,00911.09472,E,2,12,1.30,159.9,M,47.1,M,,0000*47
$GNGGA,121750.00,4529.81778,N,00911.09481,E,2,12,1.48,160.0,M,47.1,M,,0000*4C
$GNGGA,121751.00,4529.81767,N,00911.09497,E,2,12,1.48,160.2,M,47.1,M,,0000*46
$GNGGA,121752.00,4529.81758,N,00911.09508,E,2,12,1.48,160.3,M,47.1,M,,0000*4F
$GNGGA,121753.00,4529.81749,N,00911.09519,E,2,12,1.46,160.6,M,47.1,M,,0000*45
$GNGGA,121754.00,4529.81741,N,00911.09529,E,2,12,1.46,160.7,M,47.1,M,,0000*48
$GNGGA,121755.00,4529.81745,N,00911.09527,E,2,12,1.40,160.7,M,47.1,M,,0000*45
$GNGGA,121756.00,4529.81744,N,00911.09533,E,2,12,1.40,160.6,M,47.1,M,,0000*43
$GNGGA,121757.00,4529.81742,N,00911.09538,E,2,12,1.40,160.6,M,47.1,M,,0000*4F
$GNGGA,121758.00,4529.81749,N,00911.09532,E,2,11,1.46,160.4,M,47.1,M,,0000*46
$GNGGA,121759.00,4529.81747,N,00911.09538,E,2,11,1.46,160.4,M,47.1,M,,0000*43
$GNGGA,121800.00,4529.81751,N,00911.09537,E,2,12,1.40,160.3,M,47.1,M,,0000*4A
$GNGGA,121801.00,4529.81759,N,00911.09526,E,2,12,1.40,160.1,M,47.1,M,,0000*41
$GNGGA,121802.00,4529.81752,N,00911.09534,E,2,12,1.46,160.1,M,47.1,M,,0000*4C
$GNGGA,121803.00,4529.81760,N,00911.09528,E,2,12,1.40,159.9,M,47.1,M,,0000*45
$GNGGA,121804.00,4529.81764,N,00911.09525,E,2,12,1.40,159.8,M,47.1,M,,0000*4A
$GNGGA,121805.00,4529.81756,N,00911.09536,E,2,12,1.46,159.9,M,47.1,M,,0000*4F
$GNGGA,121806.00,4529.81754,N,00911.09539,E,2,12,1.40,159.9,M,47.1,M,,0000*47
$GNGGA,121807.00,4529.81750,N,00911.09546,E,2,12,1.40,159.9,M,47.1,M,,0000*4A
$GNGGA,121808.00,4529.81744,N,00911.09555,E,2,12,1.46,159.9,M,47.1,M,,0000*44
$GNGGA,121809.00,4529.81743,N,00911.09555,E,2,12,1.40,159.9,M,47.1,M,,0000*44
$GNGGA,121810.00,4529.81743,N,00911.09556,E,2,12,1.40,159.8,M,47.1,M,,0000*4E
$GNGGA,121811.00,4529.81737,N,00911.09564,E,2,12,1.98,159.9,M,47.1,M,,0000*49
$GNGGA,121812.00,4529.81724,N,00911.09580,E,2,12,1.23,160.1,M,47.1,M,,0000*40
$GNGGA,121813.00,4529.81712,N,00911.09593,E,2,12,1.23,160.2,M,47.1,M,,0000*45
$GNGGA,121814.00,4529.81710,N,00911.09596,E,2,12,1.23,160.2,M,47.1,M,,0000*45
$GNGGA,121815.00,4529.81707,N,00911.09598,E,2,12,1.23,160.2,M,47.1,M,,0000*4C
$GNGGA,121816.00,4529.81707,N,00911.09596,E,2,12,1.23,160.2,M,47.1,M,,0000*41
$GNGGA,121817.00,4529.81699,N,00911.09604,E,2,12,1.23,160.3,M,47.1,M,,0000*4F
$GNGGA,121818.00,4529.81698,N,00911.09602,E,2,12,1.23,160.3,M,47.1,M,,0000*47
$GNGGA,121819.00,4529.81695,N,00911.09603,E,2,12,1.23,160.4,M,47.1,M,,0000*4D
$GNGGA,121820.00,4529.81705,N,00911.09588,E,2,12,1.25,160.3,M,47.1,M,,0000*4E
$GNGGA,121821.00,4529.81702,N,00911.09587,E,2,12,1.23,160.3,M,47.1,M,,0000*41
$GNGGA,121822.00,4529.81703,N,00911.09582,E,2,12,1.23,160.3,M,47.1,M,,0000*46
$GNGGA,121823.00,4529.81703,N,00911.09574,E,2,12,1.18,160.2,M,47.1,M,,0000*47
$GNGGA,121824.00,4529.81694,N,00911.09578,E,2,12,1.16,160.3,M,47.1,M,,0000*4C
$GNGGA,121825.00,4529.81699,N,00911.09565,E,2,12,1.16,160.1,M,47.1,M,,0000*4E
$GNGGA,121826.00,4529.81691,N,00911.09570,E,2,12,1.16,160.2,M,47.1,M,,0000*42
$GNGGA,121827.00,4529.81682,N,00911.09573,E,2,12,1.16,160.3,M,47.1,M,,0000*43
$GNGGA,121828.00,4529.81685,N,00911.09565,E,2,12,1.16,160.2,M,47.1,M,,0000*4D
$GNGGA,121829.00,4529.81690,N,00911.09554,E,2,12,1.23,160.0,M,47.1,M,,0000*4E
$GNGGA,121830.00,4529.81681,N,00911.09558,E,2,12,1.24,160.2,M,47.1,M,,0000*4F
$GNGGA,121831.00,4529.81675,N,00911.09559,E,2,12,1.16,160.2,M,47.1,M,,0000*45
$GNGGA,121832.00,4529.81677,N,00911.09553,E,2,12,1.24,160.0,M,47.1,M,,0000*4D
$GNGGA,121833.00,4529.81677,N,00911.09547,E,2,12,1.24,159.9,M,47.1,M,,0000*4A
$GNGGA,121834.00,4529.81672,N,00911.09548,E,2,12,1.24,159.9,M,47.1,M,,0000*47
$GNGGA,121835.00,4529.81666,N,00911.09547,E,2,12,1.24,159.9,M,47.1,M,,0000*4C
$GNGGA,121836.00,4529.81660,N,00911.09551,E,2,11,1.23,160.0,M,47.1,M,,0000*49
$GNGGA,121837.00,4529.81645,N,00911.09564,E,2,12,1.23,160.2,M,47.1,M,,0000*48
$GNGGA,121838.00,4529.81630,N,00911.09573,E,2,12,1.23,160.3,M,47.1,M,,0000*42
$GNGGA,121839.00,4529.81629,N,00911.09567,E,2,12,1.73,160.3,M,47.1,M,,0000*4B
$GNGGA,121840.00,4529.81614,N,00911.09583,E,2,12,1.72,160.6,M,47.1,M,,0000*45
$GNGGA,121841.00,4529.81601,N,00911.09597,E,2,12,1.73,160.7,M,47.1,M,,0000*45
$GNGGA,121842.00,4529.81591,N,00911.09606,E,2,12,2.02,160.9,M,47.1,M,,0000*4C
$GNGGA,121843.00,4529.81580,N,00911.09617,E,2,12,1.24,161.1,M,47.1,M,,0000*43
$GNGGA,121844.00,4529.81577,N,00911.09616,E,2,11,1.24,161.1,M,47.1,M,,0000*4E
$GNGGA,121845.00,4529.81566,N,00911.09629,E,2,12,1.24,161.2,M,47.1,M,,0000*43
$GNGGA,121846.00,4529.81559,N,00911.09636,E,2,12,1.24,161.2,M,47.1,M,,0000*42
$GNGGA,121847.00,4529.81551,N,00911.09645,E,2,12,1.24,161.3,M,47.1,M,,0000*4E
$GNGGA,121848.00,4529.81543,N,00911.09650,E,2,12,1.24,161.4,M,47.1,M,,0000*41
$GNGGA,121849.00,4529.81533,N,00911.09660,E,2,12,1.24,161.5,M,47.1,M,,0000*45
$GNGGA,121850.00,4529.81528,N,00911.09658,E,2,12,2.02,161.6,M,47.1,M,,0000*48
$GNGGA,121851.00,4529.81518,N,00911.09663,E,2,12,2.02,161.6,M,47.1,M,,0000*42
$GNGGA,121852.00,4529.81510,N,00911.09668,E,2,12,1.97,161.7,M,47.1,M,,0000*4C
$GNGGA,121853.00,4529.81493,N,00911.09683,E,2,12,2.02,162.0,M,47.1,M,,0000*49
$GNGGA,121854.00,4529.81480,N,00911.09699,E,2,12,2.02,162.1,M,47.1,M,,0000*46
$GNGGA,121855.00,4529.81473,N,00911.09708,E,2,12,1.97,162.2,M,47.1,M,,0000*4E
$GNGGA,121856.00,4529.81464,N,00911.09720,E,2,12,2.02,162.3,M,47.1,M,,0000*4F
$GNGGA,121857.00,4529.81474,N,00911.09709,E,2,12,1.16,162.1,M,47.1,M,,0000*40
$GNGGA,121858.00,4529.81480,N,00911.09706,E,2,12,1.16,161.8,M,47.1,M,,0000*41
$GNGGA,121859.00,4529.81486,N,00911.09701,E,2,12,1.16,161.6,M,47.1,M,,0000*4F
$GNGGA,121900.00,4529.81493,N,00911.09697,E,2,12,1.16,161.4,M,47.1,M,,0000*4A
$GNGGA,121901.00,4529.81499,N,00911.09693,E,2,11,1.16,161.2,M,47.1,M,,0000*40
$GNGGA,121902.00,4529.81498,N,00911.09699,E,2,11,1.16,161.2,M,47.1,M,,0000*48
$GNGGA,121903.00,4529.81506,N,00911.09693,E,2,12,1.16,160.9,M,47.1,M,,0000*4C
$GNGGA,121904.00,4529.81504,N,00911.09695,E,2,12,1.16,160.9,M,47.1,M,,0000*4F
$GNGGA,121905.00,4529.81495,N,00911.09707,E,2,12,1.16,160.9,M,47.1,M,,0000*4D
$GNGGA,121906.00,4529.81491,N,00911.09714,E,2,12,1.16,160.8,M,47.1,M,,0000*49
$GNGGA,121907.00,4529.81482,N,00911.09723,E,2,12,1.16,160.8,M,47.1,M,,0000*4E
$GNGGA,121908.00,4529.81486,N,00911.09716,E,2,12,1.16,160.7,M,47.1,M,,0000*4C
$GNGGA,121909.00,4529.81484,N,00911.09721,E,2,12,1.16,160.6,M,47.1,M,,0000*4A
$GNGGA,121910.00,4529.81484,N,00911.09723,E,2,12,1.16,160.5,M,47.1,M,,0000*43
$GNGGA,121911.00,4529.81483,N,00911.09724,E,2,12,1.16,160.4,M,47.1,M,,0000*43
$GNGGA,121912.00,4529.81484,N,00911.09724,E,2,12,1.16,160.4,M,47.1,M,,0000*47
$GNGGA,121913.00,4529.81484,N,00911.09727,E,2,12,1.16,160.3,M,47.1,M,,0000*42
$GNGGA,121914.00,4529.81482,N,00911.09728,E,2,12,1.16,160.3,M,47.1,M,,0000*4C
$GNGGA,121915.00,4529.81481,N,00911.09728,E,2,12,1.16,160.3,M,47.1,M,,0000*4E
$GNGGA,121916.00,4529.81475,N,00911.09734,E,2,12,1.16,160.3,M,47.1,M,,0000*4B
$GNGGA,121917.00,4529.81476,N,00911.09735,E,2,12,1.16,160.2,M,47.1,M,,0000*49
$GNGGA,121918.00,4529.81479,N,00911.09736,E,2,12,1.16,160.0,M,47.1,M,,0000*48
$GNGGA,121919.00,4529.81484,N,00911.09734,E,2,12,1.15,159.7,M,47.1,M,,0000*47
$GNGGA,121920.00,4529.81490,N,00911.09731,E,2,12,1.15,159.6,M,47.1,M,,0000*4C
$GNGGA,121921.00,4529.81496,N,00911.09727,E,2,12,1.15,159.4,M,47.1,M,,0000*4E
$GNGGA,121922.00,4529.81509,N,00911.09713,E,2,12,1.15,159.2,M,47.1,M,,0000*4B
$GNGGA,121923.00,4529.81521,N,00911.09701,E,2,12,1.15,158.9,M,47.1,M,,0000*49
$GNGGA,121924.00,4529.81534,N,00911.09688,E,2,12,1.15,158.6,M,47.1,M,,0000*45
$GNGGA,121925.00,4529.81547,N,00911.09672,E,2,12,1.16,158.4,M,47.1,M,,0000*44
$GNGGA,121926.00,4529.81556,N,00911.09660,E,2,12,1.16,158.4,M,47.1,M,,0000*44
$GNGGA,121927.00,4529.81576,N,00911.09638,E,2,12,1.16,158.1,M,47.1,M,,0000*4F
$GNGGA,121928.00,4529.81591,N,00911.09622,E,2,12,1.16,157.9,M,47.1,M,,0000*45
$GNGGA,121929.00,4529.81606,N,00911.09608,E,2,12,1.16,157.7,M,47.1,M,,0000*4F
$GNGGA,121930.00,4529.81614,N,00911.09600,E,2,12,1.16,157.7,M,47.1,M,,0000*4C
$GNGGA,121931.00,4529.81634,N,00911.09580,E,2,12,1.16,157.5,M,47.1,M,,0000*46
$GNGGA,121932.00,4529.81650,N,00911.09564,E,2,12,1.16,157.3,M,47.1,M,,0000*4B
$GNGGA,121933.00,4529.81660,N,00911.09552,E,2,12,1.16,157.1,M,47.1,M,,0000*4E
$GNGGA,121934.00,4529.81671,N,00911.09543,E,2,11,1.16,156.9,M,47.1,M,,0000*43
$GNGGA,121935.00,4529.81696,N,00911.09522,E,2,11,1.16,156.5,M,47.1,M,,0000*40
$GNGGA,121936.00,4529.81715,N,00911.09504,E,2,11,1.16,156.2,M,47.1,M,,0000*4A
$GNGGA,121937.00,4529.81732,N,00911.09490,E,2,12,1.16,156.0,M,47.1,M,,0000*43
$GNGGA,121938.00,4529.81743,N,00911.09483,E,2,12,1.16,155.8,M,47.1,M,,0000*43
$GNGGA,121939.00,4529.81757,N,00911.09474,E,2,12,1.16,155.7,M,47.1,M,,0000*40
$GNGGA,121940.00,4529.81777,N,00911.09461,E,2,12,1.16,155.5,M,47.1,M,,0000*4A
$GNGGA,121941.00,4529.81791,N,00911.09452,E,2,12,1.16,155.4,M,47.1,M,,0000*42
$GNGGA,121942.00,4529.81804,N,00911.09442,E,2,12,1.16,155.3,M,47.1,M,,0000*44
$GNGGA,121943.00,4529.81820,N,00911.09432,E,2,12,1.16,155.3,M,47.1,M,,0000*44
$GNGGA,121944.00,4529.81837,N,00911.09423,E,2,12,1.16,155.2,M,47.1,M,,0000*44
$GNGGA,121945.00,4529.81854,N,00911.09410,E,2,12,1.16,155.1,M,47.1,M,,0000*43
$GNGGA,121946.00,4529.81867,N,00911.09401,E,2,12,1.16,155.0,M,47.1,M,,0000*41
$GNGGA,121947.00,4529.81880,N,00911.09392,E,2,11,1.16,154.9,M,47.1,M,,0000*4F
$GNGGA,121948.00,4529.81890,N,00911.09381,E,2,12,1.16,154.8,M,47.1,M,,0000*41
$GNGGA,121949.00,4529.81902,N,00911.09366,E,2,12,1.16,154.7,M,47.1,M,,0000*4C
$GNGGA,121950.00,4529.81911,N,00911.09356,E,2,12,1.16,154.6,M,47.1,M,,0000*44
$GNGGA,121951.00,4529.81922,N,00911.09345,E,2,12,1.16,154.5,M,47.1,M,,0000*44
$GNGGA,121952.00,4529.81938,N,00911.09326,E,2,12,1.16,154.4,M,47.1,M,,0000*48
$GNGGA,121953.00,4529.81953,N,00911.09310,E,2,12,1.47,154.3,M,47.1,M,,0000*42
$GNGGA,121954.00,4529.81969,N,00911.09293,E,2,12,1.16,154.3,M,47.1,M,,0000*42
$GNGGA,121955.00,4529.81978,N,00911.09283,E,2,12,1.16,154.4,M,47.1,M,,0000*45
$GNGGA,121956.00,4529.81993,N,00911.09267,E,2,12,1.45,154.2,M,47.1,M,,0000*49
$GNGGA,121957.00,4529.82005,N,00911.09256,E,2,12,1.16,154.2,M,47.1,M,,0000*49
$GNGGA,121958.00,4529.82018,N,00911.09242,E,2,12,1.16,154.1,M,47.1,M,,0000*4C
$GNGGA,121959.00,4529.82033,N,00911.09226,E,2,12,1.45,154.0,M,47.1,M,,0000*41
$GNGGA,122000.00,4529.82043,N,00911.09216,E,2,12,1.16,153.9,M,47.1,M,,0000*4B
$GNGGA,122001.00,4529.82054,N,00911.09207,E,2,12,1.15,153.8,M,47.1,M,,0000*4E
$GNGGA,122002.00,4529.82064,N,00911.09193,E,2,12,1.45,153.7,M,47.1,M,,0000*4A
$GNGGA,122003.00,4529.82074,N,00911.09181,E,2,12,1.15,153.6,M,47.1,M,,0000*4D
$GNGGA,122004.00,4529.82091,N,00911.09160,E,2,12,1.15,153.5,M,47.1,M,,0000*4D
$GNGGA,122005.00,4529.82105,N,00911.09139,E,2,12,1.45,153.3,M,47.1,M,,0000*4F
$GNGGA,122006.00,4529.82110,N,00911.09127,E,2,12,1.15,153.3,M,47.1,M,,0000*42
$GNGGA,122007.00,4529.82118,N,00911.09113,E,2,12,1.15,153.2,M,47.1,M,,0000*4D
$GNGGA,122008.00,4529.82125,N,00911.09104,E,2,12,1.44,153.2,M,47.1,M,,0000*4E
$GNGGA,122009.00,4529.82134,N,00911.09092,E,2,12,1.15,153.1,M,47.1,M,,0000*46
$GNGGA,122010.00,4529.82141,N,00911.09084,E,2,12,1.15,153.0,M,47.1,M,,0000*4A
$GNGGA,122011.00,4529.82149,N,00911.09073,E,2,12,1.44,152.9,M,47.1,M,,0000*47
$GNGGA,122012.00,4529.82158,N,00911.09062,E,2,12,1.15,152.8,M,47.1,M,,0000*41
$GNGGA,122013.00,4529.82168,N,00911.09052,E,2,12,1.15,152.7,M,47.1,M,,0000*4F
$GNGGA,122014.00,4529.82173,N,00911.09047,E,2,12,1.44,152.7,M,47.1,M,,0000*42
$GNGGA,122015.00,4529.82179,N,00911.09042,E,2,12,1.15,152.6,M,47.1,M,,0000*49
$GNGGA,122016.00,4529.82184,N,00911.09037,E,2,12,1.15,152.5,M,47.1,M,,0000*49
$GNGGA,122017.00,4529.82195,N,00911.09026,E,2,12,1.15,152.3,M,47.1,M,,0000*4E
$GNGGA,122018.00,4529.82196,N,00911.09022,E,2,12,1.16,152.2,M,47.1,M,,0000*44
$GNGGA,122019.00,4529.82199,N,00911.09021,E,2,12,1.16,152.2,M,47.1,M,,0000*49
$GNGGA,122020.00,4529.82202,N,00911.09017,E,2,12,1.16,152.2,M,47.1,M,,0000*47
$GNGGA,122021.00,4529.82207,N,00911.09012,E,2,12,1.16,152.1,M,47.1,M,,0000*45
$GNGGA,122022.00,4529.82217,N,00911.09004,E,2,12,1.15,152.0,M,47.1,M,,0000*42
$GNGGA,122023.00,4529.82220,N,00911.09001,E,2,12,1.15,152.0,M,47.1,M,,0000*42
$GNGGA,122024.00,4529.82223,N,00911.09000,E,2,12,1.15,151.9,M,47.1,M,,0000*4D
$GNGGA,122025.00,4529.82225,N,00911.08994,E,2,12,1.15,151.9,M,47.1,M,,0000*4F
$GNGGA,122026.00,4529.82228,N,00911.08990,E,2,12,1.15,152.0,M,47.1,M,,0000*4F
$GNGGA,122027.00,4529.82238,N,00911.08978,E,2,12,1.44,151.8,M,47.1,M,,0000*46
$GNGGA,122028.00,4529.82245,N,00911.08969,E,2,12,1.44,151.7,M,47.1,M,,0000*4C
$GNGGA,122029.00,4529.82251,N,00911.08959,E,2,12,1.44,151.6,M,47.1,M,,0000*4A
$GNGGA,122030.00,4529.82259,N,00911.08945,E,2,12,1.44,151.4,M,47.1,M,,0000*45
$GNGGA,122031.00,4529.82265,N,00911.08933,E,2,12,1.60,151.3,M,47.1,M,,0000*4B
$GNGGA,122032.00,4529.82270,N,00911.08928,E,2,12,1.44,151.2,M,47.1,M,,0000*41
$GNGGA,122033.00,4529.82279,N,00911.08920,E,2,12,1.44,151.1,M,47.1,M,,0000*42
$GNGGA,122034.00,4529.82288,N,00911.08911,E,2,12,1.60,150.9,M,47.1,M,,0000*46
$GNGGA,122035.00,4529.82294,N,00911.08904,E,2,12,1.44,150.8,M,47.1,M,,0000*49
$GNGGA,122036.00,4529.82295,N,00911.08896,E,2,12,1.44,150.7,M,47.1,M,,0000*4E
$GNGGA,122037.00,4529.82296,N,00911.08889,E,2,12,1.60,150.6,M,47.1,M,,0000*45
$GNGGA,122038.00,4529.82294,N,00911.08885,E,2,12,1.29,150.5,M,47.1,M,,0000*4A
$GNGGA,122039.00,4529.82292,N,00911.08879,E,2,12,1.29,150.4,M,47.1,M,,0000*4F
$GNGGA,122040.00,4529.82286,N,00911.08876,E,2,12,1.29,150.4,M,47.1,M,,0000*4B
$GNGGA,122041.00,4529.82286,N,00911.08873,E,2,12,1.29,150.4,M,47.1,M,,0000*4F
$GNGGA,122042.00,4529.82284,N,00911.08870,E,2,12,1.44,150.4,M,47.1,M,,0000*46
$GNGGA,122043.00,4529.82287,N,00911.08863,E,2,12,1.44,150.3,M,47.1,M,,0000*41
$GNGGA,122044.00,4529.82277,N,00911.08870,E,2,12,1.38,150.3,M,47.1,M,,0000*40
$GNGGA,122045.00,4529.82273,N,00911.08868,E,2,12,1.38,150.3,M,47.1,M,,0000*4C
$GNGGA,122046.00,4529.82271,N,00911.08868,E,2,12,1.38,150.2,M,47.1,M,,0000*4C
$GNGGA,122047.00,4529.82264,N,00911.08872,E,2,12,1.38,150.1,M,47.1,M,,0000*41
$GNGGA,122048.00,4529.82259,N,00911.08871,E,2,12,1.37,150.1,M,47.1,M,,0000*4C
$GNGGA,122049.00,4529.82250,N,00911.08876,E,2,12,1.37,150.0,M,47.1,M,,0000*42
$GNGGA,122050.00,4529.82243,N,00911.08879,E,2,12,1.37,149.9,M,47.1,M,,0000*46
$GNGGA,122051.00,4529.82239,N,00911.08879,E,2,12,1.44,149.8,M,47.1,M,,0000*4F
$GNGGA,122052.00,4529.82237,N,00911.08871,E,2,12,1.44,149.7,M,47.1,M,,0000*45
$GNGGA,122053.00,4529.82235,N,00911.08867,E,2,12,1.43,149.6,M,47.1,M,,0000*47
$GNGGA,122054.00,4529.82232,N,00911.08863,E,2,12,1.43,149.4,M,47.1,M,,0000*41
$GNGGA,122055.00,4529.82232,N,00911.08857,E,2,12,1.43,149.3,M,47.1,M,,0000*40
$GNGGA,122056.00,4529.82232,N,00911.08852,E,2,12,1.43,149.0,M,47.1,M,,0000*45
$GNGGA,122057.00,4529.82234,N,00911.08847,E,2,12,1.39,148.9,M,47.1,M,,0000*43
$GNGGA,122058.00,4529.82232,N,00911.08845,E,2,12,1.37,148.8,M,47.1,M,,0000*47
$GNGGA,122059.00,4529.82231,N,00911.08840,E,2,12,1.37,148.7,M,47.1,M,,0000*4F
$GNGGA,122100.00,4529.82230,N,00911.08836,E,2,11,1.43,148.6,M,47.1,M,,0000*43
$GNGGA,122101.00,4529.82230,N,00911.08834,E,2,12,1.43,148.4,M,47.1,M,,0000*41
$GNGGA,122102.00,4529.82233,N,00911.08828,E,2,12,1.37,148.2,M,47.1,M,,0000*49
$GNGGA,122103.00,4529.82235,N,00911.08823,E,2,12,1.37,148.0,M,47.1,M,,0000*47
$GNGGA,122104.00,4529.82236,N,00911.08818,E,2,12,1.37,147.9,M,47.1,M,,0000*4D
$GNGGA,122105.00,4529.82235,N,00911.08816,E,2,12,1.37,147.7,M,47.1,M,,0000*4F
$GNGGA,122106.00,4529.82233,N,00911.08815,E,2,12,1.37,147.6,M,47.1,M,,0000*48
$GNGGA,122107.00,4529.82238,N,00911.08806,E,2,12,1.37,147.4,M,47.1,M,,0000*42
$GNGGA,122108.00,4529.82240,N,00911.08802,E,2,12,1.37,147.2,M,47.1,M,,0000*40
$GNGGA,122109.00,4529.82239,N,00911.08801,E,2,12,1.37,147.1,M,47.1,M,,0000*4F
$GNGGA,122110.00,4529.82243,N,00911.08795,E,2,12,1.37,147.0,M,47.1,M,,0000*49
$GNGGA,122111.00,4529.82240,N,00911.08793,E,2,12,1.28,146.9,M,47.1,M,,0000*4B
$GNGGA,122112.00,4529.82231,N,00911.08796,E,2,12,1.28,147.0,M,47.1,M,,0000*43
$GNGGA,122113.00,4529.82226,N,00911.08796,E,2,12,1.28,147.0,M,47.1,M,,0000*44
$GNGGA,122114.00,4529.82217,N,00911.08803,E,2,12,1.28,147.1,M,47.1,M,,0000*43
$GNGGA,122115.00,4529.82211,N,00911.08807,E,2,12,1.28,147.2,M,47.1,M,,0000*43
$GNGGA,122116.00,4529.82208,N,00911.08807,E,2,12,1.28,147.2,M,47.1,M,,0000*48
$GNGGA,122117.00,4529.82206,N,00911.08805,E,2,12,1.28,147.2,M,47.1,M,,0000*45
$GNGGA,122118.00,4529.82200,N,00911.08808,E,2,12,1.28,147.1,M,47.1,M,,0000*42
$GNGGA,122119.00,4529.82195,N,00911.08815,E,2,12,1.28,147.1,M,47.1,M,,0000*40
$GNGGA,122120.00,4529.82194,N,00911.08821,E,2,12,1.28,147.1,M,47.1,M,,0000*4C
$GNGGA,122121.00,4529.82192,N,00911.08825,E,2,12,1.28,147.2,M,47.1,M,,0000*4C
$GNGGA,122122.00,4529.82190,N,00911.08826,E,2,12,1.28,147.1,M,47.1,M,,0000*4D
$GNGGA,122123.00,4529.82188,N,00911.08825,E,2,12,1.28,147.1,M,47.1,M,,0000*46
$GNGGA,122124.00,4529.82186,N,00911.08829,E,2,12,1.28,147.2,M,47.1,M,,0000*40
$GNGGA,122125.00,4529.82189,N,00911.08825,E,2,12,1.28,147.1,M,47.1,M,,0000*41
$GNGGA,122126.00,4529.82191,N,00911.08823,E,2,11,1.44,147.0,M,47.1,M,,0000*45
$GNGGA,122127.00,4529.82196,N,00911.08819,E,2,11,1.44,146.8,M,47.1,M,,0000*43
$GNGGA,122128.00,4529.82201,N,00911.08815,E,2,11,1.44,146.7,M,47.1,M,,0000*42
$GNGGA,122129.00,4529.82212,N,00911.08807,E,2,11,1.44,146.5,M,47.1,M,,0000*40
$GNGGA,122130.00,4529.82220,N,00911.08804,E,2,11,1.44,146.4,M,47.1,M,,0000*4B
$GNGGA,122131.00,4529.82226,N,00911.08803,E,2,11,1.44,146.3,M,47.1,M,,0000*4C
$GNGGA,122132.00,4529.82235,N,00911.08799,E,2,12,1.37,146.2,M,47.1,M,,0000*47
$GNGGA,122133.00,4529.82240,N,00911.08803,E,2,12,1.37,146.5,M,47.1,M,,0000*4F
$GNGGA,122134.00,4529.82244,N,00911.08808,E,2,12,1.37,146.7,M,47.1,M,,0000*45
$GNGGA,122135.00,4529.82242,N,00911.08818,E,2,12,1.37,146.9,M,47.1,M,,0000*4D
$GNGGA,122136.00,4529.82251,N,00911.08817,E,2,12,1.37,146.9,M,47.1,M,,0000*43
$GNGGA,122137.00,4529.82260,N,00911.08812,E,2,12,1.37,146.9,M,47.1,M,,0000*45
$GNGGA,122138.00,4529.82264,N,00911.08810,E,2,12,1.43,147.1,M,47.1,M,,0000*46
$GNGGA,122139.00,4529.82274,N,00911.08803,E,2,11,1.43,147.1,M,47.1,M,,0000*47
$GNGGA,122140.00,4529.82280,N,00911.08799,E,2,11,1.43,147.3,M,47.1,M,,0000*4C
$GNGGA,122141.00,4529.82285,N,00911.08797,E,2,11,1.43,147.3,M,47.1,M,,0000*46
$GNGGA,122142.00,4529.82291,N,00911.08794,E,2,12,1.37,147.4,M,47.1,M,,0000*44
$GNGGA,122143.00,4529.82295,N,00911.08789,E,2,12,1.37,147.5,M,47.1,M,,0000*4C
$GNGGA,122144.00,4529.82301,N,00911.08781,E,2,12,1.43,147.6,M,47.1,M,,0000*4F
$GNGGA,122145.00,4529.82305,N,00911.08776,E,2,12,1.14,147.8,M,47.1,M,,0000*4E
$GNGGA,122146.00,4529.82307,N,00911.08774,E,2,12,1.14,148.1,M,47.1,M,,0000*4B
$GNGGA,122147.00,4529.82312,N,00911.08769,E,2,12,1.37,148.2,M,47.1,M,,0000*40
$GNGGA,122148.00,4529.82312,N,00911.08768,E,2,12,1.14,148.4,M,47.1,M,,0000*49
$GNGGA,122149.00,4529.82313,N,00911.08768,E,2,12,1.14,148.6,M,47.1,M,,0000*4B
$GNGGA,122150.00,4529.82319,N,00911.08761,E,2,12,1.37,148.7,M,47.1,M,,0000*40
$GNGGA,122151.00,4529.82319,N,00911.08762,E,2,12,1.14,148.9,M,47.1,M,,0000*4D
$GNGGA,122152.00,4529.82318,N,00911.08765,E,2,12,1.14,149.0,M,47.1,M,,0000*40
$GNGGA,122153.00,4529.82323,N,00911.08762,E,2,12,1.43,149.0,M,47.1,M,,0000*4C
$GNGGA,122154.00,4529.82331,N,00911.08762,E,2,10,1.43,149.0,M,47.1,M,,0000*4A
$GNGGA,122155.00,4529.82337,N,00911.08759,E,2,11,1.15,149.1,M,47.1,M,,0000*46
$GNGGA,122156.00,4529.82343,N,00911.08753,E,2,11,1.43,149.2,M,47.1,M,,0000*4C
$GNGGA,122157.00,4529.82347,N,00911.08749,E,2,11,1.15,149.3,M,47.1,M,,0000*40
$GNGGA,122158.00,4529.82355,N,00911.08744,E,2,11,1.15,149.4,M,47.1,M,,0000*46
$GNGGA,122159.00,4529.82355,N,00911.08749,E,2,11,1.43,149.6,M,47.1,M,,0000*4B
$GNGGA,122200.00,4529.82356,N,00911.08751,E,2,11,1.15,149.8,M,47.1,M,,0000*43
$GNGGA,122201.00,4529.82355,N,00911.08755,E,2,11,1.15,150.0,M,47.1,M,,0000*45
