$GNGGA,120905.00,4529.82611,N,00911.08402,E,1,07,1.58,131.6,M,47.1,M,,*40
$GNGGA,120906.00,4529.82597,N,00911.08406,E,1,07,1.58,132.0,M,47.1,M,,*4F
$GNGGA,120907.00,4529.82579,N,00911.08413,E,1,07,1.58,132.5,M,47.1,M,,*4F
$GNGGA,120908.00,4529.82562,N,00911.08421,E,1,07,1.58,132.9,M,47.1,M,,*47
$GNGGA,120909.00,4529.82582,N,00911.08402,E,1,08,1.90,132.8,M,47.1,M,,*43
$GNGGA,120910.00,4529.82602,N,00911.08384,E,1,08,1.90,132.7,M,47.1,M,,*46
$GNGGA,120911.00,4529.82618,N,00911.08368,E,1,08,1.90,132.7,M,47.1,M,,*4E
$GNGGA,120912.00,4529.82636,N,00911.08353,E,1,08,1.90,132.6,M,47.1,M,,*48
$GNGGA,120913.00,4529.82649,N,00911.08341,E,1,08,1.90,132.6,M,47.1,M,,*42
$GNGGA,120914.00,4529.82659,N,00911.08330,E,1,08,1.90,132.6,M,47.1,M,,*42
$GNGGA,120915.00,4529.82664,N,00911.08323,E,1,08,1.90,132.7,M,47.1,M,,*4E
$GNGGA,120916.00,4529.82673,N,00911.08313,E,1,08,1.90,132.8,M,47.1,M,,*47
$GNGGA,120917.00,4529.82677,N,00911.08307,E,1,08,1.90,132.9,M,47.1,M,,*46
$GNGGA,120918.00,4529.82681,N,00911.08301,E,1,08,1.90,133.0,M,47.1,M,,*4E
$GNGGA,120919.00,4529.82683,N,00911.08297,E,1,08,1.90,133.0,M,47.1,M,,*43
$GNGGA,120920.00,4529.82686,N,00911.08292,E,1,08,1.90,133.1,M,47.1,M,,*48
$GNGGA,120921.00,4529.82688,N,00911.08287,E,1,08,1.90,133.3,M,47.1,M,,*41
$GNGGA,120922.00,4529.82691,N,00911.08279,E,1,08,1.90,133.3,M,47.1,M,,*4B
$GNGGA,120923.00,4529.82690,N,00911.08274,E,1,08,1.90,133.5,M,47.1,M,,*40
$GNGGA,120924.00,4529.82687,N,00911.08270,E,1,08,1.90,133.5,M,47.1,M,,*45
$GNGGA,120925.00,4529.82667,N,00911.08283,E,1,08,1.36,133.8,M,47.1,M,,*47
$GNGGA,120926.00,4529.82646,N,00911.08297,E,1,08,1.36,134.1,M,47.1,M,,*4C
$GNGGA,120927.00,4529.82630,N,00911.08308,E,1,08,1.36,134.3,M,47.1,M,,*49
$GNGGA,120928.00,4529.82616,N,00911.08317,E,1,08,1.36,134.5,M,47.1,M,,*4A
$GNGGA,120929.00,4529.82605,N,00911.08325,E,1,08,1.36,134.7,M,47.1,M,,*4A
$GNGGA,120930.00,4529.82604,N,00911.08326,E,1,08,1.36,134.7,M,47.1,M,,*40
$GNGGA,120931.00,4529.82599,N,00911.08329,E,1,08,1.36,134.8,M,47.1,M,,*46
$GNGGA,120932.00,4529.82595,N,00911.08330,E,1,08,1.36,134.8,M,47.1,M,,*41
$GNGGA,120933.00,4529.82591,N,00911.08329,E,1,08,1.36,134.8,M,47.1,M,,*4C
$GNGGA,120934.00,4529.82589,N,00911.08329,E,1,08,1.36,134.8,M,47.1,M,,*42
$GNGGA,120935.00,4529.82580,N,00911.08331,E,1,08,1.36,134.8,M,47.1,M,,*43
$GNGGA,120936.00,4529.82576,N,00911.08330,E,1,08,1.36,134.8,M,47.1,M,,*48
$GNGGA,120937.00,4529.82571,N,00911.08331,E,1,08,1.36,134.7,M,47.1,M,,*40
$GNGGA,120938.00,4529.82568,N,00911.08330,E,1,08,1.36,134.6,M,47.1,M,,*47
$GNGGA,120939.00,4529.82560,N,00911.08332,E,1,08,1.36,134.6,M,47.1,M,,*4C
$GNGGA,120940.00,4529.82562,N,00911.08329,E,1,08,1.36,134.5,M,47.1,M,,*49
$GNGGA,120941.00,4529.82561,N,00911.08328,E,1,08,1.36,134.4,M,47.1,M,,*4B
$GNGGA,120942.00,4529.82562,N,00911.08327,E,1,08,1.36,134.2,M,47.1,M,,*42
$GNGGA,120943.00,4529.82558,N,00911.08329,E,1,08,1.36,134.1,M,47.1,M,,*47
$GNGGA,120944.00,4529.82558,N,00911.08329,E,1,08,1.36,134.0,M,47.1,M,,*41
$GNGGA,120945.00,4529.82555,N,00911.08330,E,1,08,1.36,133.9,M,47.1,M,,*4B
$GNGGA,120946.00,4529.82554,N,00911.08330,E,1,08,1.36,133.7,M,47.1,M,,*47
$GNGGA,120947.00,4529.82560,N,00911.08322,E,1,08,1.90,133.5,M,47.1,M,,*4C
$GNGGA,120948.00,4529.82555,N,00911.08324,E,1,08,1.36,133.4,M,47.1,M,,*4E
$GNGGA,120949.00,4529.82551,N,00911.08327,E,1,08,1.36,133.3,M,47.1,M,,*4F
$GNGGA,120950.00,4529.82545,N,00911.08331,E,1,08,1.36,133.3,M,47.1,M,,*45
$GNGGA,120951.00,4529.82542,N,00911.08333,E,1,08,1.36,133.2,M,47.1,M,,*40
$GNGGA,120952.00,4529.82539,N,00911.08337,E,1,08,1.36,133.0,M,47.1,M,,*49
$GNGGA,120953.00,4529.82532,N,00911.08343,E,1,08,1.36,132.9,M,47.1,M,,*48
$GNGGA,120954.00,4529.82525,N,00911.08349,E,1,08,1.36,132.8,M,47.1,M,,*42
$GNGGA,120955.00,4529.82516,N,00911.08355,E,2,08,1.36,132.8,M,47.1,M,,0000*4D
$GNGGA,120956.00,4529.82505,N,00911.08361,E,2,08,1.36,132.7,M,47.1,M,,0000*44
$GNGGA,120957.00,4529.82500,N,00911.08364,E,2,08,1.36,132.6,M,47.1,M,,0000*44
$GNGGA,120958.00,4529.82495,N,00911.08367,E,2,08,1.36,132.5,M,47.1,M,,0000*46
$GNGGA,120959.00,4529.82488,N,00911.08372,E,2,08,1.36,132.5,M,47.1,M,,0000*4F
$GNGGA,121000.00,4529.82483,N,00911.08375,E,2,08,1.36,132.4,M,47.1,M,,0000*46
$GNGGA,121001.00,4529.82478,N,00911.08377,E,2,08,1.36,132.3,M,47.1,M,,0000*46
$GNGGA,121002.00,4529.82466,N,00911.08384,E,2,08,1.36,132.2,M,47.1,M,,0000*47
$GNGGA,121003.00,4529.82460,N,00911.08388,E,2,08,1.36,132.2,M,47.1,M,,0000*4C
$GNGGA,121004.00,4529.82448,N,00911.08395,E,2,08,1.36,132.1,M,47.1,M,,0000*4E
$GNGGA,121005.00,4529.82439,N,00911.08400,E,2,08,1.36,132.1,M,47.1,M,,0000*42
$GNGGA,121006.00,4529.82431,N,00911.08406,E,2,08,1.36,132.0,M,47.1,M,,0000*4E
$GNGGA,121007.00,4529.82418,N,00911.08414,E,2,08,1.36,132.0,M,47.1,M,,0000*47
$GNGGA,121008.00,4529.82425,N,00911.08384,E,2,08,1.36,132.1,M,47.1,M,,0000*49
$GNGGA,121009.00,4529.82419,N,00911.08376,E,2,08,1.36,132.2,M,47.1,M,,0000*49
$GNGGA,121010.00,4529.82408,N,00911.08372,E,2,08,1.36,132.3,M,47.1,M,,0000*44
$GNGGA,121011.00,4529.82395,N,00911.08375,E,2,08,1.36,132.3,M,47.1,M,,0000*41
$GNGGA,121012.00,4529.82381,N,00911.08377,E,2,08,1.36,132.4,M,47.1,M,,0000*42
$GNGGA,121013.00,4529.82366,N,00911.08385,E,2,08,1.36,132.5,M,47.1,M,,0000*46
$GNGGA,121014.00,4529.82351,N,00911.08392,E,2,08,1.36,132.5,M,47.1,M,,0000*43
$GNGGA,121015.00,4529.82329,N,00911.08406,E,2,08,1.36,132.8,M,47.1,M,,0000*4A
$GNGGA,121016.00,4529.82305,N,00911.08419,E,2,08,1.36,133.0,M,47.1,M,,0000*40
$GNGGA,121017.00,4529.82280,N,00911.08438,E,2,08,1.36,133.2,M,47.1,M,,0000*4C
$GNGGA,121018.00,4529.82255,N,00911.08455,E,2,08,1.36,133.4,M,47.1,M,,0000*46
$GNGGA,121019.00,4529.82233,N,00911.08472,E,2,08,1.36,133.7,M,47.1,M,,0000*41
$GNGGA,121020.00,4529.82211,N,00911.08490,E,2,08,1.36,133.9,M,47.1,M,,0000*49
$GNGGA,121021.00,4529.82192,N,00911.08504,E,2,08,1.36,134.2,M,47.1,M,,0000*40
$GNGGA,121022.00,4529.82176,N,00911.08514,E,2,08,1.36,134.4,M,47.1,M,,0000*4E
$GNGGA,121023.00,4529.82162,N,00911.08522,E,2,08,1.36,134.5,M,47.1,M,,0000*4E
$GNGGA,121024.00,4529.82146,N,00911.08531,E,2,08,1.36,134.7,M,47.1,M,,0000*4F
$GNGGA,121025.00,4529.82134,N,00911.08538,E,2,08,1.36,134.9,M,47.1,M,,0000*4C
$GNGGA,121026.00,4529.82119,N,00911.08548,E,2,08,1.36,135.1,M,47.1,M,,0000*4E
$GNGGA,121027.00,4529.82110,N,00911.08553,E,2,08,1.36,135.3,M,47.1,M,,0000*4E
$GNGGA,121028.00,4529.82099,N,00911.08559,E,2,08,1.36,135.5,M,47.1,M,,0000*4D
$GNGGA,121029.00,4529.82084,N,00911.08569,E,2,08,1.36,135.7,M,47.1,M,,0000*41
$GNGGA,121030.00,4529.82072,N,00911.08578,E,2,08,1.36,136.0,M,47.1,M,,0000*44
$GNGGA,121031.00,4529.82060,N,00911.08587,E,2,08,1.36,136.2,M,47.1,M,,0000*44
$GNGGA,121032.00,4529.82030,N,00911.08614,E,2,08,1.36,136.7,M,47.1,M,,0000*4E
$GNGGA,121033.00,4529.82015,N,00911.08625,E,2,08,1.36,136.9,M,47.1,M,,0000*44
$GNGGA,121034.00,4529.82004,N,00911.08635,E,2,08,1.36,137.2,M,47.1,M,,0000*48
$GNGGA,121035.00,4529.81993,N,00911.08646,E,2,08,1.36,137.5,M,47.1,M,,0000*4E
$GNGGA,121036.00,4529.81995,N,00911.08634,E,2,08,1.90,137.6,M,47.1,M,,0000*41
$GNGGA,121037.00,4529.81997,N,00911.08622,E,2,08,1.90,137.7,M,47.1,M,,0000*44
$GNGGA,121038.00,4529.82002,N,00911.08608,E,2,09,1.84,137.8,M,47.1,M,,0000*4E
$GNGGA,121039.00,4529.82008,N,00911.08592,E,2,09,1.84,137.9,M,47.1,M,,0000*44
$GNGGA,121040.00,4529.82015,N,00911.08577,E,2,09,1.84,138.1,M,47.1,M,,0000*4A
$GNGGA,121041.00,4529.82018,N,00911.08564,E,2,09,1.84,138.2,M,47.1,M,,0000*47
$GNGGA,121042.00,4529.82024,N,00911.08551,E,2,09,1.84,138.4,M,47.1,M,,0000*4B
$GNGGA,121043.00,4529.82032,N,00911.08537,E,2,09,1.84,138.6,M,47.1,M,,0000*4F
$GNGGA,121044.00,4529.82040,N,00911.08525,E,2,09,1.84,138.7,M,47.1,M,,0000*4F
$GNGGA,121045.00,4529.82048,N,00911.08516,E,2,09,1.84,138.8,M,47.1,M,,0000*49
$GNGGA,121046.00,4529.82056,N,00911.08508,E,2,09,1.84,139.0,M,47.1,M,,0000*43
$GNGGA,121047.00,4529.82065,N,00911.08500,E,2,09,1.84,139.0,M,47.1,M,,0000*4A
$GNGGA,121048.00,4529.82065,N,00911.08506,E,2,09,1.35,139.2,M,47.1,M,,0000*4B
$GNGGA,121049.00,4529.82075,N,00911.08499,E,2,09,1.81,139.3,M,47.1,M,,0000*42
$GNGGA,121050.00,4529.82078,N,00911.08497,E,2,09,1.81,139.5,M,47.1,M,,0000*4F
$GNGGA,121051.00,4529.82083,N,00911.08491,E,2,09,1.81,139.6,M,47.1,M,,0000*4F
$GNGGA,121052.00,4529.82091,N,00911.08487,E,2,09,1.81,139.6,M,47.1,M,,0000*48
$GNGGA,121053.00,4529.82082,N,00911.08502,E,2,09,1.28,140.0,M,47.1,M,,0000*4C
$GNGGA,121054.00,4529.82074,N,00911.08515,E,2,09,1.28,140.2,M,47.1,M,,0000*46
$GNGGA,121055.00,4529.82069,N,00911.08524,E,2,09,1.28,140.4,M,47.1,M,,0000*4F
$GNGGA,121056.00,4529.82064,N,00911.08534,E,2,09,1.28,140.6,M,47.1,M,,0000*42
$GNGGA,121057.00,4529.82055,N,00911.08546,E,2,09,1.28,141.0,M,47.1,M,,0000*43
$GNGGA,121058.00,4529.82043,N,00911.08560,E,2,09,1.28,141.3,M,47.1,M,,0000*4C
$GNGGA,121059.00,4529.82037,N,00911.08572,E,2,09,1.28,141.5,M,47.1,M,,0000*4B
$GNGGA,121100.00,4529.82025,N,00911.08588,E,2,09,1.28,141.8,M,47.1,M,,0000*4D
$GNGGA,121101.00,4529.82015,N,00911.08601,E,2,09,1.28,142.1,M,47.1,M,,0000*47
$GNGGA,121102.00,4529.82007,N,00911.08613,E,2,09,1.28,142.4,M,47.1,M,,0000*41
$GNGGA,121103.00,4529.81997,N,00911.08627,E,2,09,1.28,142.6,M,47.1,M,,0000*46
$GNGGA,121104.00,4529.81989,N,00911.08638,E,2,09,1.28,142.9,M,47.1,M,,0000*4F
$GNGGA,121105.00,4529.81981,N,00911.08653,E,2,09,1.28,143.1,M,47.1,M,,0000*42
$GNGGA,121106.00,4529.81973,N,00911.08666,E,2,09,1.28,143.3,M,47.1,M,,0000*48
$GNGGA,121107.00,4529.81954,N,00911.08684,E,2,10,1.07,143.6,M,47.1,M,,0000*40
$GNGGA,121108.00,4529.81937,N,00911.08700,E,2,10,1.07,143.9,M,47.1,M,,0000*48
$GNGGA,121109.00,4529.81924,N,00911.08712,E,2,10,1.07,144.2,M,47.1,M,,0000*44
$GNGGA,121110.00,4529.81912,N,00911.08722,E,2,10,1.07,144.4,M,47.1,M,,0000*4C
$GNGGA,121111.00,4529.81897,N,00911.08734,E,2,10,1.07,144.7,M,47.1,M,,0000*45
$GNGGA,121112.00,4529.81885,N,00911.08743,E,2,10,1.07,144.9,M,47.1,M,,0000*4B
$GNGGA,121113.00,4529.81875,N,00911.08752,E,2,10,1.07,145.1,M,47.1,M,,0000*4C
$GNGGA,121114.00,4529.81864,N,00911.08760,E,2,10,1.07,145.3,M,47.1,M,,0000*48
$GNGGA,121115.00,4529.81856,N,00911.08765,E,2,10,1.07,145.4,M,47.1,M,,0000*4A
$GNGGA,121116.00,4529.81846,N,00911.08772,E,2,10,1.07,145.6,M,47.1,M,,0000*4C
$GNGGA,121117.00,4529.81836,N,00911.08780,E,2,10,1.07,145.7,M,47.1,M,,0000*46
$GNGGA,121118.00,4529.81825,N,00911.08789,E,2,10,1.07,145.9,M,47.1,M,,0000*4C
$GNGGA,121119.00,4529.81813,N,00911.08801,E,2,10,1.07,146.0,M,47.1,M,,0000*4D
$GNGGA,121120.00,4529.81811,N,00911.08799,E,2,10,1.34,146.0,M,47.1,M,,0000*4B
$GNGGA,121121.00,4529.81810,N,00911.08797,E,2,10,1.34,146.0,M,47.1,M,,0000*45
$GNGGA,121122.00,4529.81808,N,00911.08794,E,2,10,1.34,146.0,M,47.1,M,,0000*4C
$GNGGA,121123.00,4529.81810,N,00911.08789,E,2,10,1.34,146.0,M,47.1,M,,0000*48
$GNGGA,121124.00,4529.81814,N,00911.08784,E,2,10,1.34,145.9,M,47.1,M,,0000*4C
$GNGGA,121125.00,4529.81814,N,00911.08780,E,2,10,1.34,145.9,M,47.1,M,,0000*49
$GNGGA,121126.00,4529.81821,N,00911.08771,E,2,10,1.34,145.7,M,47.1,M,,0000*4C
$GNGGA,121127.00,4529.81822,N,00911.08768,E,2,10,1.34,145.7,M,47.1,M,,0000*46
$GNGGA,121128.00,4529.81823,N,00911.08765,E,2,10,1.34,145.6,M,47.1,M,,0000*44
$GNGGA,121129.00,4529.81817,N,00911.08772,E,2,10,1.07,145.6,M,47.1,M,,0000*44
$GNGGA,121130.00,4529.81810,N,00911.08778,E,2,10,1.07,145.7,M,47.1,M,,0000*40
$GNGGA,121131.00,4529.81808,N,00911.08779,E,2,10,1.07,145.7,M,47.1,M,,0000*49
$GNGGA,121132.00,4529.81814,N,00911.08771,E,2,10,1.34,145.5,M,47.1,M,,0000*4D
$GNGGA,121133.00,4529.81817,N,00911.08768,E,2,10,1.34,145.5,M,47.1,M,,0000*47
$GNGGA,121134.00,4529.81815,N,00911.08767,E,2,10,1.34,145.4,M,47.1,M,,0000*4C
$GNGGA,121135.00,4529.81815,N,00911.08768,E,2,10,1.34,145.4,M,47.1,M,,0000*42
$GNGGA,121136.00,4529.81819,N,00911.08764,E,2,10,1.34,145.3,M,47.1,M,,0000*46
$GNGGA,121137.00,4529.81821,N,00911.08761,E,2,10,1.34,145.3,M,47.1,M,,0000*49
$GNGGA,121138.00,4529.81825,N,00911.08759,E,2,10,1.34,145.2,M,47.1,M,,0000*48
$GNGGA,121139.00,4529.81829,N,00911.08757,E,2,10,1.34,145.1,M,47.1,M,,0000*48
$GNGGA,121140.00,4529.81836,N,00911.08752,E,2,10,1.33,144.9,M,47.1,M,,0000*43
$GNGGA,121141.00,4529.81840,N,00911.08749,E,2,10,1.33,144.8,M,47.1,M,,0000*48
$GNGGA,121142.00,4529.81846,N,00911.08745,E,2,10,1.33,144.7,M,47.1,M,,0000*4E
$GNGGA,121143.00,4529.81852,N,00911.08740,E,2,10,1.33,144.5,M,47.1,M,,0000*4D
$GNGGA,121144.00,4529.81852,N,00911.08741,E,2,10,1.49,144.4,M,47.1,M,,0000*47
$GNGGA,121145.00,4529.81852,N,00911.08741,E,2,10,1.49,144.3,M,47.1,M,,0000*41
$GNGGA,121146.00,4529.81854,N,00911.08738,E,2,10,1.49,144.2,M,47.1,M,,0000*4B
$GNGGA,121147.00,4529.81863,N,00911.08731,E,2,10,1.49,144.0,M,47.1,M,,0000*45
$GNGGA,121148.00,4529.81869,N,00911.08727,E,2,10,1.49,143.8,M,47.1,M,,0000*48
$GNGGA,121149.00,4529.81871,N,00911.08727,E,2,10,1.49,143.7,M,47.1,M,,0000*4F
$GNGGA,121150.00,4529.81880,N,00911.08721,E,2,10,1.49,143.5,M,47.1,M,,0000*4D
$GNGGA,121151.00,4529.81886,N,00911.08718,E,2,10,1.49,143.3,M,47.1,M,,0000*46
$GNGGA,121152.00,4529.81889,N,00911.08717,E,2,09,1.49,143.2,M,47.1,M,,0000*4C
$GNGGA,121153.00,4529.81896,N,00911.08713,E,2,09,1.49,143.1,M,47.1,M,,0000*44
$GNGGA,121154.00,4529.81900,N,00911.08711,E,2,10,1.33,142.9,M,47.1,M,,0000*43
$GNGGA,121155.00,4529.81908,N,00911.08705,E,2,10,1.49,142.7,M,47.1,M,,0000*4C
$GNGGA,121156.00,4529.81915,N,00911.08700,E,2,10,1.33,142.6,M,47.1,M,,0000*4A
$GNGGA,121157.00,4529.81918,N,00911.08698,E,2,10,1.33,142.5,M,47.1,M,,0000*45
$GNGGA,121158.00,4529.81921,N,00911.08694,E,2,10,1.33,142.4,M,47.1,M,,0000*4D
$GNGGA,121159.00,4529.81927,N,00911.08688,E,2,10,1.33,142.3,M,47.1,M,,0000*40
$GNGGA,121200.00,4529.81926,N,00911.08688,E,2,09,1.49,142.3,M,47.1,M,,0000*4B
$GNGGA,121201.00,4529.81926,N,00911.08686,E,2,10,1.33,142.2,M,47.1,M,,0000*40
$GNGGA,121202.00,4529.81931,N,00911.08680,E,2,10,1.33,142.1,M,47.1,M,,0000*40
$GNGGA,121203.00,4529.81936,N,00911.08675,E,2,10,1.33,142.0,M,47.1,M,,0000*4D
$GNGGA,121204.00,4529.81936,N,00911.08673,E,2,10,1.33,142.1,M,47.1,M,,0000*4D
$GNGGA,121205.00,4529.81943,N,00911.08669,E,2,10,1.33,141.9,M,47.1,M,,0000*4E
$GNGGA,121206.00,4529.81941,N,00911.08669,E,2,10,1.33,141.9,M,47.1,M,,0000*4F
$GNGGA,121207.00,4529.81950,N,00911.08663,E,2,10,1.33,141.7,M,47.1,M,,0000*4A
$GNGGA,121208.00,4529.81955,N,00911.08661,E,2,10,1.07,141.6,M,47.1,M,,0000*44
$GNGGA,121209.00,4529.81955,N,00911.08663,E,2,10,1.07,141.5,M,47.1,M,,0000*44
$GNGGA,121210.00,4529.81955,N,00911.08666,E,2,10,1.07,141.5,M,47.1,M,,0000*49
$GNGGA,121211.00,4529.81957,N,00911.08665,E,2,10,1.33,141.5,M,47.1,M,,0000*4E
$GNGGA,121212.00,4529.81959,N,00911.08665,E,2,10,1.33,141.5,M,47.1,M,,0000*43
$GNGGA,121213.00,4529.81962,N,00911.08663,E,2,10,1.33,141.4,M,47.1,M,,0000*4D
$GNGGA,121214.00,4529.81969,N,00911.08660,E,2,10,1.33,141.2,M,47.1,M,,0000*44
$GNGGA,121215.00,4529.81971,N,00911.08662,E,2,10,1.33,141.2,M,47.1,M,,0000*4E
$GNGGA,121216.00,4529.81975,N,00911.08661,E,2,10,1.33,141.1,M,47.1,M,,0000*49
$GNGGA,121217.00,4529.81977,N,00911.08660,E,2,10,1.33,141.0,M,47.1,M,,0000*4A
$GNGGA,121218.00,4529.81978,N,00911.08659,E,2,10,1.33,141.1,M,47.1,M,,0000*41
$GNGGA,121219.00,4529.81982,N,00911.08656,E,2,10,1.33,141.0,M,47.1,M,,0000*4B
$GNGGA,121220.00,4529.81981,N,00911.08657,E,2,10,1.33,141.0,M,47.1,M,,0000*43
$GNGGA,121221.00,4529.81987,N,00911.08652,E,2,10,1.33,141.0,M,47.1,M,,0000*41
$GNGGA,121222.00,4529.81990,N,00911.08649,E,2,10,1.33,141.0,M,47.1,M,,0000*4E
$GNGGA,121223.00,4529.81990,N,00911.08649,E,2,10,1.33,141.1,M,47.1,M,,0000*4E
$GNGGA,121224.00,4529.81991,N,00911.08649,E,2,10,1.33,141.1,M,47.1,M,,0000*48
$GNGGA,121225.00,4529.81991,N,00911.08647,E,2,10,1.32,141.1,M,47.1,M,,0000*46
$GNGGA,121226.00,4529.81994,N,00911.08645,E,2,10,1.32,141.1,M,47.1,M,,0000*42
$GNGGA,121227.00,4529.81990,N,00911.08649,E,2,10,1.32,141.3,M,47.1,M,,0000*49
$GNGGA,121228.00,4529.81987,N,00911.08652,E,2,10,1.32,141.4,M,47.1,M,,0000*4D
$GNGGA,121229.00,4529.81982,N,00911.08655,E,2,10,1.32,141.5,M,47.1,M,,0000*4F
$GNGGA,121230.00,4529.81979,N,00911.08655,E,2,10,1.32,141.6,M,47.1,M,,0000*40
$GNGGA,121231.00,4529.81979,N,00911.08653,E,2,10,1.32,141.7,M,47.1,M,,0000*46
$GNGGA,121232.00,4529.81979,N,00911.08650,E,2,10,1.32,141.8,M,47.1,M,,0000*49
$GNGGA,121233.00,4529.81981,N,00911.08648,E,2,10,1.32,141.8,M,47.1,M,,0000*46
$GNGGA,121234.00,4529.81982,N,00911.08646,E,2,10,1.32,141.9,M,47.1,M,,0000*4D
$GNGGA,121235.00,4529.81980,N,00911.08646,E,2,10,1.32,141.9,M,47.1,M,,0000*4E
$GNGGA,121236.00,4529.81984,N,00911.08642,E,2,10,1.32,142.0,M,47.1,M,,0000*47
$GNGGA,121237.00,4529.81986,N,00911.08639,E,2,10,1.32,142.1,M,47.1,M,,0000*49
$GNGGA,121238.00,4529.81987,N,00911.08638,E,2,10,1.32,142.2,M,47.1,M,,0000*45
$GNGGA,121239.00,4529.81988,N,00911.08637,E,2,10,1.32,142.3,M,47.1,M,,0000*45
$GNGGA,121240.00,4529.81988,N,00911.08634,E,2,10,1.32,142.2,M,47.1,M,,0000*49
$GNGGA,121241.00,4529.81987,N,00911.08630,E,2,10,1.32,142.1,M,47.1,M,,0000*40
$GNGGA,121242.00,4529.81986,N,00911.08627,E,2,10,1.32,142.1,M,47.1,M,,0000*44
$GNGGA,121243.00,4529.81992,N,00911.08611,E,2,10,1.32,142.0,M,47.1,M,,0000*44
$GNGGA,121244.00,4529.81985,N,00911.08602,E,2,10,1.34,142.2,M,47.1,M,,0000*43
$GNGGA,121245.00,4529.82038,N,00911.08534,E,2,10,1.32,142.3,M,47.1,M,,0000*4F
$GNGGA,121246.00,4529.82088,N,00911.08465,E,2,10,1.32,142.4,M,47.1,M,,0000*45
$GNGGA,121247.00,4529.82131,N,00911.08409,E,2,10,1.34,142.5,M,47.1,M,,0000*4A
$GNGGA,121248.00,4529.82158,N,00911.08371,E,2,10,1.32,142.6,M,47.1,M,,0000*47
$GNGGA,121249.00,4529.82176,N,00911.08340,E,2,10,1.34,142.8,M,47.1,M,,0000*40
$GNGGA,121250.00,4529.82187,N,00911.08319,E,2,10,1.34,143.0,M,47.1,M,,0000*43
$GNGGA,121251.00,4529.82239,N,00911.08246,E,2,10,1.34,143.1,M,47.1,M,,0000*4E
$GNGGA,121252.00,4529.82263,N,00911.08207,E,2,10,1.34,143.3,M,47.1,M,,0000*45
$GNGGA,121253.00,4529.82284,N,00911.08175,E,2,10,1.32,143.5,M,47.1,M,,0000*4B
$GNGGA,121254.00,4529.82295,N,00911.08155,E,2,10,1.32,143.7,M,47.1,M,,0000*4C
$GNGGA,121255.00,4529.82313,N,00911.08129,E,2,10,1.32,143.9,M,47.1,M,,0000*47
$GNGGA,121256.00,4529.82330,N,00911.08105,E,2,10,1.32,144.1,M,47.1,M,,0000*44
$GNGGA,121257.00,4529.82349,N,00911.08081,E,2,10,1.32,144.2,M,47.1,M,,0000*45
$GNGGA,121258.00,4529.82372,N,00911.08056,E,2,10,1.32,144.2,M,47.1,M,,0000*48
$GNGGA,121259.00,4529.82393,N,00911.08030,E,2,10,1.34,144.2,M,47.1,M,,0000*40
$GNGGA,121300.00,4529.82415,N,00911.08000,E,2,10,1.34,144.1,M,47.1,M,,0000*44
$GNGGA,121301.00,4529.82426,N,00911.07984,E,2,10,1.34,144.1,M,47.1,M,,0000*4F
$GNGGA,121302.00,4529.82435,N,00911.07967,E,2,10,1.34,144.1,M,47.1,M,,0000*43
$GNGGA,121303.00,4529.82449,N,00911.07948,E,2,10,1.34,143.9,M,47.1,M,,0000*4B
$GNGGA,121304.00,4529.82462,N,00911.07931,E,2,10,1.34,143.7,M,47.1,M,,0000*45
$GNGGA,121305.00,4529.82475,N,00911.07914,E,2,10,1.34,143.3,M,47.1,M,,0000*41
$GNGGA,121306.00,4529.82495,N,00911.07895,E,2,10,1.34,142.6,M,47.1,M,,0000*40
$GNGGA,121307.00,4529.82512,N,00911.07875,E,2,10,1.34,142.1,M,47.1,M,,0000*46
$GNGGA,121308.00,4529.82528,N,00911.07857,E,2,10,1.34,141.7,M,47.1,M,,0000*45
$GNGGA,121309.00,4529.82546,N,00911.07837,E,2,10,1.34,141.3,M,47.1,M,,0000*4E
$GNGGA,121310.00,4529.82565,N,00911.07817,E,2,10,1.34,140.9,M,47.1,M,,0000*4E
$GNGGA,121311.00,4529.82582,N,00911.07798,E,2,10,1.34,140.5,M,47.1,M,,0000*42
$GNGGA,121312.00,4529.82596,N,00911.07779,E,2,10,1.34,140.2,M,47.1,M,,0000*4C
$GNGGA,121313.00,4529.82613,N,00911.07759,E,2,10,1.34,139.9,M,47.1,M,,0000*44
$GNGGA,121314.00,4529.82624,N,00911.07744,E,2,10,1.34,139.5,M,47.1,M,,0000*47
$GNGGA,121315.00,4529.82641,N,00911.07728,E,2,10,1.34,139.0,M,47.1,M,,0000*4A
$GNGGA,121316.00,4529.82659,N,00911.07713,E,2,10,1.34,138.6,M,47.1,M,,0000*4F
$GNGGA,121317.00,4529.82673,N,00911.07700,E,2,10,1.34,138.2,M,47.1,M,,0000*40
$GNGGA,121318.00,4529.82684,N,00911.07689,E,2,10,1.34,138.0,M,47.1,M,,0000*45
$GNGGA,121319.00,4529.82714,N,00911.07681,E,2,10,1.31,137.9,M,47.1,M,,0000*47
$GNGGA,121320.00,4529.82744,N,00911.07672,E,2,10,1.34,137.8,M,47.1,M,,0000*40
$GNGGA,121321.00,4529.82774,N,00911.07664,E,2,10,1.31,137.7,M,47.1,M,,0000*4F
$GNGGA,121322.00,4529.82806,N,00911.07655,E,2,10,1.31,137.4,M,47.1,M,,0000*47
$GNGGA,121323.00,4529.82834,N,00911.07648,E,2,10,1.31,137.2,M,47.1,M,,0000*4D
$GNGGA,121324.00,4529.82860,N,00911.07642,E,2,10,1.31,137.0,M,47.1,M,,0000*43
$GNGGA,121325.00,4529.82883,N,00911.07636,E,2,10,1.31,136.8,M,47.1,M,,0000*45
$GNGGA,121326.00,4529.82910,N,00911.07627,E,2,10,1.31,136.6,M,47.1,M,,0000*43
$GNGGA,121327.00,4529.82934,N,00911.07618,E,2,10,1.31,136.3,M,47.1,M,,0000*4D
$GNGGA,121328.00,4529.82957,N,00911.07611,E,2,10,1.31,136.1,M,47.1,M,,0000*4C
$GNGGA,121329.00,4529.82975,N,00911.07606,E,2,10,1.31,135.9,M,47.1,M,,0000*40
$GNGGA,121330.00,4529.82996,N,00911.07599,E,2,10,1.31,135.6,M,47.1,M,,0000*4F
$GNGGA,121331.00,4529.83014,N,00911.07596,E,2,10,1.31,135.4,M,47.1,M,,0000*41
$GNGGA,121332.00,4529.83036,N,00911.07588,E,2,10,1.31,135.1,M,47.1,M,,0000*48
$GNGGA,121333.00,4529.83056,N,00911.07579,E,2,10,1.31,134.8,M,47.1,M,,0000*49
$GNGGA,121334.00,4529.83075,N,00911.07572,E,2,10,1.31,134.6,M,47.1,M,,0000*4A
$GNGGA,121335.00,4529.83094,N,00911.07564,E,2,10,1.31,134.3,M,47.1,M,,0000*46
$GNGGA,121336.00,4529.83113,N,00911.07558,E,2,10,1.31,134.1,M,47.1,M,,0000*46
$GNGGA,121337.00,4529.83132,N,00911.07552,E,2,10,1.31,133.8,M,47.1,M,,0000*40
$GNGGA,121338.00,4529.83149,N,00911.07547,E,2,10,1.31,133.5,M,47.1,M,,0000*4A
$GNGGA,121339.00,4529.83125,N,00911.07570,E,2,11,1.27,133.9,M,47.1,M,,0000*4F
$GNGGA,121340.00,4529.83102,N,00911.07594,E,2,11,1.27,134.3,M,47.1,M,,0000*43
$GNGGA,121341.00,4529.83089,N,00911.07612,E,2,11,1.27,134.5,M,47.1,M,,0000*4B
$GNGGA,121342.00,4529.83075,N,00911.07630,E,2,11,1.05,134.8,M,47.1,M,,0000*46
$GNGGA,121343.00,4529.83065,N,00911.07645,E,2,10,1.56,134.9,M,47.1,M,,0000*42
$GNGGA,121344.00,4529.83052,N,00911.07660,E,2,10,1.27,135.2,M,47.1,M,,0000*4A
$GNGGA,121345.00,4529.83045,N,00911.07670,E,2,10,1.27,135.3,M,47.1,M,,0000*4D
$GNGGA,121346.00,4529.83042,N,00911.07677,E,2,11,1.27,135.3,M,47.1,M,,0000*4F
$GNGGA,121347.00,4529.83035,N,00911.07687,E,2,11,1.05,135.4,M,47.1,M,,0000*46
$GNGGA,121348.00,4529.83012,N,00911.07721,E,2,11,1.05,135.9,M,47.1,M,,0000*4C
$GNGGA,121349.00,4529.82992,N,00911.07751,E,2,11,1.27,136.2,M,47.1,M,,0000*42
$GNGGA,121350.00,4529.82978,N,00911.07772,E,2,11,1.05,136.5,M,47.1,M,,0000*48
$GNGGA,121351.00,4529.82964,N,00911.07790,E,2,11,1.05,136.7,M,47.1,M,,0000*4A
$GNGGA,121352.00,4529.82959,N,00911.07802,E,2,11,1.27,136.8,M,47.1,M,,0000*4C
$GNGGA,121353.00,4529.82957,N,00911.07813,E,2,11,1.05,136.9,M,47.1,M,,0000*42
$GNGGA,121354.00,4529.82960,N,00911.07821,E,2,11,1.05,136.8,M,47.1,M,,0000*41
$GNGGA,121355.00,4529.82963,N,00911.07826,E,2,11,1.05,136.8,M,47.1,M,,0000*44
$GNGGA,121356.00,4529.82971,N,00911.07829,E,2,11,1.05,136.7,M,47.1,M,,0000*44
$GNGGA,121357.00,4529.82973,N,00911.07834,E,2,11,1.05,136.7,M,47.1,M,,0000*4B
$GNGGA,121358.00,4529.82976,N,00911.07838,E,2,11,1.05,136.6,M,47.1,M,,0000*4C
$GNGGA,121359.00,4529.82980,N,00911.07845,E,2,11,1.05,136.5,M,47.1,M,,0000*4D
$GNGGA,121400.00,4529.82985,N,00911.07851,E,2,11,1.26,136.4,M,47.1,M,,0000*46
$GNGGA,121401.00,4529.82986,N,00911.07857,E,2,11,1.26,136.4,M,47.1,M,,0000*42
$GNGGA,121402.00,4529.82984,N,00911.07863,E,2,11,1.26,136.4,M,47.1,M,,0000*44
$GNGGA,121403.00,4529.82983,N,00911.07867,E,2,11,1.26,136.4,M,47.1,M,,0000*46
$GNGGA,121404.00,4529.82989,N,00911.07871,E,2,11,1.26,136.3,M,47.1,M,,0000*4B
$GNGGA,121405.00,4529.82993,N,00911.07874,E,2,11,1.26,136.1,M,47.1,M,,0000*46
$GNGGA,121406.00,4529.83004,N,00911.07875,E,2,11,1.30,135.8,M,47.1,M,,0000*4F
$GNGGA,121407.00,4529.83012,N,00911.07878,E,2,11,1.30,135.6,M,47.1,M,,0000*4A
$GNGGA,121408.00,4529.83022,N,00911.07882,E,2,11,1.30,135.5,M,47.1,M,,0000*40
$GNGGA,121409.00,4529.83031,N,00911.07885,E,2,11,1.30,135.4,M,47.1,M,,0000*45
$GNGGA,121410.00,4529.83040,N,00911.07888,E,2,11,1.30,135.2,M,47.1,M,,0000*40
$GNGGA,121411.00,4529.83043,N,00911.07893,E,2,11,1.30,135.2,M,47.1,M,,0000*48
$GNGGA,121412.00,4529.83054,N,00911.07895,E,2,11,1.30,135.1,M,47.1,M,,0000*48
$GNGGA,121413.00,4529.83064,N,00911.07899,E,2,11,1.30,135.0,M,47.1,M,,0000*47
$GNGGA,121414.00,4529.83069,N,00911.07905,E,2,11,1.30,135.1,M,47.1,M,,0000*48
$GNGGA,121415.00,4529.83073,N,00911.07909,E,2,10,1.30,135.1,M,47.1,M,,0000*4F
$GNGGA,121416.00,4529.83072,N,00911.07914,E,2,11,1.30,135.4,M,47.1,M,,0000*45
$GNGGA,121417.00,4529.83045,N,00911.07928,E,2,11,1.26,136.7,M,47.1,M,,0000*48
$GNGGA,121418.00,4529.83014,N,00911.07941,E,2,11,1.26,138.4,M,47.1,M,,0000*41
$GNGGA,121419.00,4529.82997,N,00911.07947,E,2,11,1.30,139.5,M,47.1,M,,0000*42
$GNGGA,121420.00,4529.82974,N,00911.07957,E,2,11,1.26,140.6,M,47.1,M,,0000*4E
$GNGGA,121421.00,4529.82950,N,00911.07966,E,2,11,1.26,141.7,M,47.1,M,,0000*4B
$GNGGA,121422.00,4529.82919,N,00911.07979,E,2,11,1.26,142.9,M,47.1,M,,0000*46
$GNGGA,121423.00,4529.82882,N,00911.07993,E,2,11,1.26,144.1,M,47.1,M,,0000*4E
$GNGGA,121424.00,4529.82858,N,00911.08002,E,2,11,1.26,144.7,M,47.1,M,,0000*46
$GNGGA,121425.00,4529.82838,N,00911.08010,E,2,11,1.26,145.1,M,47.1,M,,0000*45
$GNGGA,121426.00,4529.82818,N,00911.08018,E,2,11,1.26,145.5,M,47.1,M,,0000*48
$GNGGA,121427.00,4529.82796,N,00911.08025,E,2,11,1.26,146.0,M,47.1,M,,0000*48
$GNGGA,121428.00,4529.82777,N,00911.08028,E,2,11,1.26,146.5,M,47.1,M,,0000*40
$GNGGA,121429.00,4529.82759,N,00911.08031,E,2,11,1.26,146.9,M,47.1,M,,0000*49
$GNGGA,121430.00,4529.82733,N,00911.08040,E,2,11,1.26,147.5,M,47.1,M,,0000*46
$GNGGA,121431.00,4529.82720,N,00911.08042,E,2,11,1.26,147.8,M,47.1,M,,0000*4A
$GNGGA,121432.00,4529.82701,N,00911.08048,E,2,11,1.26,148.2,M,47.1,M,,0000*45
$GNGGA,121433.00,4529.82682,N,00911.08054,E,2,11,1.26,148.4,M,47.1,M,,0000*45
$GNGGA,121434.00,4529.82668,N,00911.08059,E,2,11,1.26,148.6,M,47.1,M,,0000*49
$GNGGA,121435.00,4529.82653,N,00911.08065,E,2,11,1.26,148.8,M,47.1,M,,0000*41
$GNGGA,121436.00,4529.82636,N,00911.08070,E,2,11,1.26,149.1,M,47.1,M,,0000*4D
$GNGGA,121437.00,4529.82618,N,00911.08076,E,2,11,1.26,149.3,M,47.1,M,,0000*44
$GNGGA,121438.00,4529.82601,N,00911.08083,E,2,11,1.26,149.5,M,47.1,M,,0000*4F
$GNGGA,121439.00,4529.82593,N,00911.08085,E,2,11,1.56,149.6,M,47.1,M,,0000*44
$GNGGA,121440.00,4529.82579,N,00911.08091,E,2,11,1.26,149.8,M,47.1,M,,0000*42
$GNGGA,121441.00,4529.82564,N,00911.08095,E,2,11,1.26,150.0,M,47.1,M,,0000*4B
$GNGGA,121442.00,4529.82548,N,00911.08100,E,2,11,1.26,150.1,M,47.1,M,,0000*4A
$GNGGA,121443.00,4529.82529,N,00911.08107,E,2,11,1.26,150.3,M,47.1,M,,0000*49
$GNGGA,121444.00,4529.82510,N,00911.08115,E,2,11,1.26,150.6,M,47.1,M,,0000*42
$GNGGA,121445.00,4529.82490,N,00911.08122,E,2,11,1.26,150.8,M,47.1,M,,0000*40
$GNGGA,121446.00,4529.82470,N,00911.08128,E,2,11,1.26,151.1,M,47.1,M,,0000*4F
$GNGGA,121447.00,4529.82451,N,00911.08134,E,2,11,1.26,151.4,M,47.1,M,,0000*45
$GNGGA,121448.00,4529.82429,N,00911.08140,E,2,11,1.28,152.0,M,47.1,M,,0000*4F
$GNGGA,121449.00,4529.82412,N,00911.08143,E,2,11,1.26,152.4,M,47.1,M,,0000*4F
$GNGGA,121450.00,4529.82388,N,00911.08150,E,2,11,1.04,152.9,M,47.1,M,,0000*4C
$GNGGA,121451.00,4529.82365,N,00911.08158,E,2,11,1.06,153.4,M,47.1,M,,0000*48
$GNGGA,121452.00,4529.82344,N,00911.08164,E,2,10,1.06,153.7,M,47.1,M,,0000*45
$GNGGA,121453.00,4529.82321,N,00911.08168,E,2,10,1.27,154.2,M,47.1,M,,0000*4A
$GNGGA,121454.00,4529.82308,N,00911.08169,E,2,11,1.27,154.5,M,47.1,M,,0000*41
$GNGGA,121455.00,4529.82285,N,00911.08175,E,2,10,1.27,155.0,M,47.1,M,,0000*4C
$GNGGA,121456.00,4529.82249,N,00911.08187,E,2,11,1.25,156.0,M,47.1,M,,0000*42
$GNGGA,121457.00,4529.82235,N,00911.08189,E,2,11,1.27,156.2,M,47.1,M,,0000*46
$GNGGA,121458.00,4529.82225,N,00911.08192,E,2,11,1.25,156.2,M,47.1,M,,0000*40
$GNGGA,121459.00,4529.82217,N,00911.08195,E,2,11,1.25,156.1,M,47.1,M,,0000*44
$GNGGA,121500.00,4529.82215,N,00911.08195,E,2,11,1.27,155.8,M,47.1,M,,0000*43
$GNGGA,121501.00,4529.82210,N,00911.08198,E,2,12,1.25,155.6,M,47.1,M,,0000*45
$GNGGA,121502.00,4529.82210,N,00911.08197,E,2,11,1.27,155.2,M,47.1,M,,0000*4C
$GNGGA,121503.00,4529.82214,N,00911.08194,E,2,12,1.27,154.8,M,47.1,M,,0000*42
$GNGGA,121504.00,4529.82218,N,00911.08192,E,2,12,1.25,154.4,M,47.1,M,,0000*41
$GNGGA,121505.00,4529.82225,N,00911.08191,E,2,12,1.25,153.8,M,47.1,M,,0000*46
$GNGGA,121506.00,4529.82230,N,00911.08190,E,2,12,1.27,153.4,M,47.1,M,,0000*4E
$GNGGA,121507.00,4529.82230,N,00911.08192,E,2,12,1.25,153.3,M,47.1,M,,0000*48
$GNGGA,121508.00,4529.82222,N,00911.08197,E,2,12,1.04,153.4,M,47.1,M,,0000*45
$GNGGA,121509.00,4529.82217,N,00911.08200,E,2,12,1.22,153.3,M,47.1,M,,0000*4C
$GNGGA,121510.00,4529.82215,N,00911.08204,E,2,12,1.04,153.2,M,47.1,M,,0000*47
$GNGGA,121511.00,4529.82211,N,00911.08209,E,2,12,1.04,153.1,M,47.1,M,,0000*4C
$GNGGA,121512.00,4529.82205,N,00911.08215,E,2,12,1.04,153.1,M,47.1,M,,0000*47
$GNGGA,121513.00,4529.82201,N,00911.08218,E,2,12,1.04,153.0,M,47.1,M,,0000*4E
$GNGGA,121514.00,4529.82198,N,00911.08223,E,2,12,1.04,153.0,M,47.1,M,,0000*42
$GNGGA,121515.00,4529.82192,N,00911.08231,E,2,12,1.04,152.9,M,47.1,M,,0000*42
$GNGGA,121516.00,4529.82184,N,00911.08239,E,2,12,1.04,152.9,M,47.1,M,,0000*4E
$GNGGA,121517.00,4529.82178,N,00911.08245,E,2,12,1.04,152.8,M,47.1,M,,0000*46
$GNGGA,121518.00,4529.82179,N,00911.08249,E,2,12,1.22,152.6,M,47.1,M,,0000*4E
$GNGGA,121519.00,4529.82187,N,00911.08249,E,2,12,1.04,152.3,M,47.1,M,,0000*4F
$GNGGA,121520.00,4529.82182,N,00911.08254,E,2,12,1.25,152.2,M,47.1,M,,0000*4E
$GNGGA,121521.00,4529.82186,N,00911.08255,E,2,12,1.56,152.0,M,47.1,M,,0000*4C
$GNGGA,121522.00,4529.82191,N,00911.08257,E,2,12,1.25,151.7,M,47.1,M,,0000*4B
$GNGGA,121523.00,4529.82193,N,00911.08259,E,2,12,1.25,151.4,M,47.1,M,,0000*45
$GNGGA,121524.00,4529.82199,N,00911.08255,E,2,12,1.56,151.2,M,47.1,M,,0000*46
$GNGGA,121525.00,4529.82208,N,00911.08249,E,2,12,1.25,150.9,M,47.1,M,,0000*4F
$GNGGA,121526.00,4529.82217,N,00911.08244,E,2,12,1.25,150.6,M,47.1,M,,0000*40
$GNGGA,121527.00,4529.82223,N,00911.08241,E,2,12,1.25,150.4,M,47.1,M,,0000*41
$GNGGA,121528.00,4529.82231,N,00911.08236,E,2,12,1.29,150.1,M,47.1,M,,0000*44
$GNGGA,121529.00,4529.82239,N,00911.08230,E,2,12,1.29,149.9,M,47.1,M,,0000*4B
$GNGGA,121530.00,4529.82255,N,00911.08219,E,2,12,1.29,149.5,M,47.1,M,,0000*4E
$GNGGA,121531.00,4529.82263,N,00911.08212,E,2,12,1.29,149.3,M,47.1,M,,0000*47
$GNGGA,121532.00,4529.82278,N,00911.08204,E,2,12,1.29,149.0,M,47.1,M,,0000*4A
$GNGGA,121533.00,4529.82291,N,00911.08198,E,2,12,1.80,148.7,M,47.1,M,,0000*4F
$GNGGA,121534.00,4529.82304,N,00911.08190,E,2,12,1.29,148.4,M,47.1,M,,0000*4D
$GNGGA,121535.00,4529.82312,N,00911.08183,E,2,12,1.29,148.2,M,47.1,M,,0000*4F
$GNGGA,121536.00,4529.82326,N,00911.08172,E,2,12,1.56,147.9,M,47.1,M,,0000*49
$GNGGA,121537.00,4529.82334,N,00911.08165,E,2,12,1.25,147.7,M,47.1,M,,0000*47
$GNGGA,121538.00,4529.82344,N,00911.08156,E,2,12,1.21,147.5,M,47.1,M,,0000*49
$GNGGA,121539.00,4529.82354,N,00911.08149,E,2,12,1.21,147.2,M,47.1,M,,0000*40
$GNGGA,121540.00,4529.82364,N,00911.08143,E,2,12,1.21,147.0,M,47.1,M,,0000*45
$GNGGA,121541.00,4529.82370,N,00911.08138,E,2,12,1.21,146.8,M,47.1,M,,0000*44
$GNGGA,121542.00,4529.82374,N,00911.08134,E,2,12,1.48,146.7,M,47.1,M,,0000*4F
$GNGGA,121543.00,4529.82378,N,00911.08130,E,2,11,1.48,146.5,M,47.1,M,,0000*47
$GNGGA,121544.00,4529.82380,N,00911.08127,E,2,11,1.21,146.4,M,47.1,M,,0000*4F
$GNGGA,121545.00,4529.82384,N,00911.08124,E,2,11,1.21,146.2,M,47.1,M,,0000*4F
$GNGGA,121546.00,4529.82386,N,00911.08122,E,2,12,1.03,146.1,M,47.1,M,,0000*48
$GNGGA,121547.00,4529.82386,N,00911.08123,E,2,12,1.03,146.1,M,47.1,M,,0000*48
$GNGGA,121548.00,4529.82391,N,00911.08121,E,2,12,1.21,145.9,M,47.1,M,,0000*48
$GNGGA,121549.00,4529.82399,N,00911.08117,E,2,12,1.03,145.7,M,47.1,M,,0000*4A
$GNGGA,121550.00,4529.82401,N,00911.08115,E,2,12,1.03,145.7,M,47.1,M,,0000*46
$GNGGA,121551.00,4529.82400,N,00911.08115,E,2,12,1.03,145.7,M,47.1,M,,0000*46
$GNGGA,121552.00,4529.82395,N,00911.08117,E,2,12,1.03,145.7,M,47.1,M,,0000*4C
$GNGGA,121553.00,4529.82389,N,00911.08120,E,2,12,1.03,145.8,M,47.1,M,,0000*4B
$GNGGA,121554.00,4529.82389,N,00911.08121,E,2,12,1.03,145.8,M,47.1,M,,0000*4D
$GNGGA,121555.00,4529.82388,N,00911.08122,E,2,12,1.03,145.8,M,47.1,M,,0000*4E
$GNGGA,121556.00,4529.82383,N,00911.08125,E,2,12,1.03,145.9,M,47.1,M,,0000*40
$GNGGA,121557.00,4529.82377,N,00911.08129,E,2,12,1.03,145.9,M,47.1,M,,0000*46
$GNGGA,121558.00,4529.82371,N,00911.08135,E,2,12,1.03,146.0,M,47.1,M,,0000*48
$GNGGA,121559.00,4529.82367,N,00911.08139,E,2,12,1.03,146.1,M,47.1,M,,0000*43
$GNGGA,121600.00,4529.82363,N,00911.08142,E,2,12,1.03,146.2,M,47.1,M,,0000*47
$GNGGA,121601.00,4529.82361,N,00911.08142,E,2,12,1.03,146.3,M,47.1,M,,0000*45
$GNGGA,121602.00,4529.82353,N,00911.08145,E,2,12,1.03,146.6,M,47.1,M,,0000*45
$GNGGA,121603.00,4529.82337,N,00911.08150,E,2,12,1.03,147.1,M,47.1,M,,0000*44
$GNGGA,121604.00,4529.82310,N,00911.08157,E,2,12,1.03,148.3,M,47.1,M,,0000*4C
$GNGGA,121605.00,4529.82289,N,00911.08162,E,2,12,1.03,149.3,M,47.1,M,,0000*4B
$GNGGA,121606.00,4529.82269,N,00911.08167,E,2,12,1.03,150.1,M,47.1,M,,0000*49
$GNGGA,121607.00,4529.82249,N,00911.08172,E,2,12,1.03,150.9,M,47.1,M,,0000*46
$GNGGA,121608.00,4529.82228,N,00911.08177,E,2,12,1.03,151.6,M,47.1,M,,0000*45
$GNGGA,121609.00,4529.82210,N,00911.08182,E,2,12,1.03,152.2,M,47.1,M,,0000*42
$GNGGA,121610.00,4529.82197,N,00911.08184,E,2,12,1.03,152.8,M,47.1,M,,0000*4A
$GNGGA,121611.00,4529.82185,N,00911.08186,E,2,12,1.03,153.3,M,47.1,M,,0000*40
$GNGGA,121612.00,4529.82175,N,00911.08187,E,2,12,1.03,153.7,M,47.1,M,,0000*49
$GNGGA,121613.00,4529.82169,N,00911.08185,E,2,12,1.03,154.1,M,47.1,M,,0000*46
$GNGGA,121614.00,4529.82161,N,00911.08184,E,2,12,1.03,154.3,M,47.1,M,,0000*4A
$GNGGA,121615.00,4529.82153,N,00911.08185,E,2,12,1.03,154.6,M,47.1,M,,0000*4E
$GNGGA,121616.00,4529.82153,N,00911.08183,E,2,12,1.03,154.8,M,47.1,M,,0000*45
$GNGGA,121617.00,4529.82156,N,00911.08180,E,2,12,1.03,154.9,M,47.1,M,,0000*43
$GNGGA,121618.00,4529.82159,N,00911.08179,E,2,12,1.03,155.0,M,47.1,M,,0000*4D
$GNGGA,121619.00,4529.82160,N,00911.08177,E,2,12,1.03,155.1,M,47.1,M,,0000*49
$GNGGA,121620.00,4529.82158,N,00911.08175,E,2,12,1.03,155.2,M,47.1,M,,0000*49
$GNGGA,121621.00,4529.82157,N,00911.08172,E,2,12,1.22,155.4,M,47.1,M,,0000*45
$GNGGA,121622.00,4529.82155,N,00911.08172,E,2,12,1.03,155.5,M,47.1,M,,0000*46
$GNGGA,121623.00,4529.82154,N,00911.08169,E,2,12,1.03,155.6,M,47.1,M,,0000*4F
$GNGGA,121624.00,4529.82150,N,00911.08169,E,2,12,1.03,155.9,M,47.1,M,,0000*43
$GNGGA,121625.00,4529.82146,N,00911.08168,E,2,12,1.00,156.1,M,47.1,M,,0000*4C
$GNGGA,121626.00,4529.82134,N,00911.08168,E,2,12,1.00,156.4,M,47.1,M,,0000*4F
$GNGGA,121627.00,4529.82121,N,00911.08169,E,2,12,1.13,156.7,M,47.1,M,,0000*4A
$GNGGA,121628.00,4529.82108,N,00911.08171,E,2,12,1.00,157.1,M,47.1,M,,0000*42
$GNGGA,121629.00,4529.82097,N,00911.08173,E,2,12,1.00,157.4,M,47.1,M,,0000*43
$GNGGA,121630.00,4529.82087,N,00911.08173,E,2,12,1.13,157.8,M,47.1,M,,0000*44
$GNGGA,121631.00,4529.82078,N,00911.08172,E,2,12,1.00,158.1,M,47.1,M,,0000*40
$GNGGA,121632.00,4529.82070,N,00911.08171,E,2,12,1.00,158.3,M,47.1,M,,0000*4A
$GNGGA,121633.00,4529.82062,N,00911.08170,E,2,12,1.13,158.6,M,47.1,M,,0000*4E
$GNGGA,121634.00,4529.82056,N,00911.08169,E,2,12,1.00,158.8,M,47.1,M,,0000*4A
$GNGGA,121635.00,4529.82054,N,00911.08166,E,2,12,1.00,158.9,M,47.1,M,,0000*47
$GNGGA,121636.00,4529.82051,N,00911.08163,E,2,12,1.00,159.1,M,47.1,M,,0000*4D
$GNGGA,121637.00,4529.82047,N,00911.08161,E,2,12,1.00,159.3,M,47.1,M,,0000*4B
$GNGGA,121638.00,4529.82047,N,00911.08158,E,2,12,1.00,159.4,M,47.1,M,,0000*49
$GNGGA,121639.00,4529.82043,N,00911.08159,E,2,12,1.13,159.6,M,47.1,M,,0000*4D
$GNGGA,121640.00,4529.82040,N,00911.08160,E,2,12,1.00,159.7,M,47.1,M,,0000*49
$GNGGA,121641.00,4529.82028,N,00911.08163,E,2,12,1.00,160.2,M,47.1,M,,0000*4A
$GNGGA,121642.00,4529.82016,N,00911.08166,E,2,12,1.12,160.8,M,47.1,M,,0000*48
$GNGGA,121643.00,4529.82007,N,00911.08169,E,2,12,1.00,161.1,M,47.1,M,,0000*4D
$GNGGA,121644.00,4529.82003,N,00911.08169,E,2,12,1.00,161.2,M,47.1,M,,0000*4D
$GNGGA,121645.00,4529.82003,N,00911.08171,E,2,12,1.12,161.1,M,47.1,M,,0000*45
$GNGGA,121646.00,4529.82005,N,00911.08171,E,2,12,1.00,160.8,M,47.1,M,,0000*4B
$GNGGA,121647.00,4529.82007,N,00911.08171,E,2,12,1.00,160.6,M,47.1,M,,0000*46
$GNGGA,121648.00,4529.82013,N,00911.08169,E,2,12,1.00,160.2,M,47.1,M,,0000*41
$GNGGA,121649.00,4529.82018,N,00911.08166,E,2,12,1.00,159.8,M,47.1,M,,0000*44
$GNGGA,121650.00,4529.82021,N,00911.08164,E,2,12,1.00,159.4,M,47.1,M,,0000*48
$GNGGA,121651.00,4529.82027,N,00911.08162,E,2,12,1.00,159.0,M,47.1,M,,0000*4D
$GNGGA,121652.00,4529.82038,N,00911.08157,E,2,12,1.00,158.5,M,47.1,M,,0000*42
$GNGGA,121653.00,4529.82044,N,00911.08156,E,2,12,1.00,158.1,M,47.1,M,,0000*4D
$GNGGA,121654.00,4529.82051,N,00911.08154,E,2,12,1.00,157.6,M,47.1,M,,0000*44
$GNGGA,121655.00,4529.82056,N,00911.08154,E,2,12,1.00,157.3,M,47.1,M,,0000*47
$GNGGA,121656.00,4529.82063,N,00911.08153,E,2,12,1.00,157.0,M,47.1,M,,0000*46
$GNGGA,121657.00,4529.82068,N,00911.08150,E,2,12,1.00,156.7,M,47.1,M,,0000*49
$GNGGA,121658.00,4529.82075,N,00911.08145,E,2,12,1.00,156.5,M,47.1,M,,0000*4C
$GNGGA,121659.00,4529.82080,N,00911.08143,E,2,12,1.00,156.2,M,47.1,M,,0000*46
$GNGGA,121700.00,4529.82083,N,00911.08144,E,2,12,1.00,156.0,M,47.1,M,,0000*4D
$GNGGA,121701.00,4529.82089,N,00911.08143,E,2,12,1.00,155.8,M,47.1,M,,0000*4A
$GNGGA,121702.00,4529.82094,N,00911.08142,E,2,12,1.00,155.6,M,47.1,M,,0000*4A
$GNGGA,121703.00,4529.82098,N,00911.08140,E,2,12,1.00,155.4,M,47.1,M,,0000*47
$GNGGA,121704.00,4529.82100,N,00911.08140,E,2,12,1.00,155.2,M,47.1,M,,0000*46
$GNGGA,121705.00,4529.82104,N,00911.08141,E,2,12,1.00,155.1,M,47.1,M,,0000*41
$GNGGA,121706.00,4529.82108,N,00911.08143,E,2,12,1.00,154.9,M,47.1,M,,0000*45
$GNGGA,121707.00,4529.82111,N,00911.08144,E,2,12,1.00,154.7,M,47.1,M,,0000*45
$GNGGA,121708.00,4529.82118,N,00911.08143,E,2,12,1.00,154.5,M,47.1,M,,0000*46
$GNGGA,121709.00,4529.82127,N,00911.08140,E,2,12,0.99,154.3,M,47.1,M,,0000*4F
$GNGGA,121710.00,4529.82137,N,00911.08137,E,2,12,1.00,154.1,M,47.1,M,,0000*45
$GNGGA,121711.00,4529.82147,N,00911.08131,E,2,12,1.00,153.8,M,47.1,M,,0000*4B
$GNGGA,121712.00,4529.82161,N,00911.08124,E,2,12,1.00,153.4,M,47.1,M,,0000*44
$GNGGA,121713.00,4529.82171,N,00911.08119,E,2,12,1.00,153.2,M,47.1,M,,0000*4C
$GNGGA,121714.00,4529.82182,N,00911.08115,E,2,12,0.99,152.8,M,47.1,M,,0000*41
$GNGGA,121715.00,4529.82191,N,00911.08114,E,2,12,0.99,152.5,M,47.1,M,,0000*4E
$GNGGA,121716.00,4529.82207,N,00911.08108,E,2,12,1.16,152.2,M,47.1,M,,0000*4D
$GNGGA,121717.00,4529.82215,N,00911.08107,E,2,12,1.16,151.9,M,47.1,M,,0000*48
$GNGGA,121718.00,4529.82229,N,00911.08102,E,2,12,1.34,151.6,M,47.1,M,,0000*42
$GNGGA,121719.00,4529.82246,N,00911.08096,E,2,12,1.34,151.2,M,47.1,M,,0000*42
$GNGGA,121720.00,4529.82258,N,00911.08091,E,2,12,1.34,150.9,M,47.1,M,,0000*4A
$GNGGA,121721.00,4529.82267,N,00911.08089,E,2,12,1.34,150.6,M,47.1,M,,0000*41
$GNGGA,121722.00,4529.82276,N,00911.08087,E,2,12,1.34,150.4,M,47.1,M,,0000*4E
$GNGGA,121723.00,4529.82286,N,00911.08083,E,2,12,1.34,150.2,M,47.1,M,,0000*42
$GNGGA,121724.00,4529.82293,N,00911.08080,E,2,12,1.34,150.0,M,47.1,M,,0000*40
$GNGGA,121725.00,4529.82301,N,00911.08078,E,2,12,1.34,149.8,M,47.1,M,,0000*4C
$GNGGA,121726.00,4529.82309,N,00911.08077,E,2,12,1.34,149.6,M,47.1,M,,0000*46
$GNGGA,121727.00,4529.82314,N,00911.08078,E,2,12,1.34,149.5,M,47.1,M,,0000*47
$GNGGA,121728.00,4529.82316,N,00911.08080,E,2,12,1.34,149.4,M,47.1,M,,0000*4C
$GNGGA,121729.00,4529.82322,N,00911.08080,E,2,12,1.19,149.3,M,47.1,M,,0000*42
$GNGGA,121730.00,4529.82327,N,00911.08080,E,2,12,1.47,149.1,M,47.1,M,,0000*46
$GNGGA,121731.00,4529.82331,N,00911.08081,E,2,12,1.47,149.0,M,47.1,M,,0000*40
$GNGGA,121732.00,4529.82336,N,00911.08080,E,2,12,1.47,148.9,M,47.1,M,,0000*4D
$GNGGA,121733.00,4529.82344,N,00911.08078,E,2,12,1.47,148.7,M,47.1,M,,0000*40
$GNGGA,121734.00,4529.82349,N,00911.08077,E,2,12,1.47,148.5,M,47.1,M,,0000*47
$GNGGA,121735.00,4529.82354,N,00911.08079,E,2,12,1.47,148.4,M,47.1,M,,0000*45
$GNGGA,121736.00,4529.82356,N,00911.08080,E,2,12,1.33,148.3,M,47.1,M,,0000*46
$GNGGA,121737.00,4529.82357,N,00911.08082,E,2,12,1.33,148.3,M,47.1,M,,0000*44
$GNGGA,121738.00,4529.82360,N,00911.08082,E,2,12,1.33,148.3,M,47.1,M,,0000*4F
$GNGGA,121739.00,4529.82357,N,00911.08085,E,2,12,1.33,148.4,M,47.1,M,,0000*4A
$GNGGA,121740.00,4529.82352,N,00911.08088,E,2,12,1.33,148.6,M,47.1,M,,0000*4E
$GNGGA,121741.00,4529.82351,N,00911.08089,E,2,12,1.33,148.7,M,47.1,M,,0000*4C
$GNGGA,121742.00,4529.82348,N,00911.08090,E,2,12,1.33,148.8,M,47.1,M,,0000*40
$GNGGA,121743.00,4529.82346,N,00911.08091,E,2,12,1.33,148.9,M,47.1,M,,0000*4F
$GNGGA,121744.00,4529.82341,N,00911.08093,E,2,12,1.33,149.0,M,47.1,M,,0000*45
$GNGGA,121745.00,4529.82336,N,00911.08095,E,2,12,1.33,149.2,M,47.1,M,,0000*40
$GNGGA,121746.00,4529.82331,N,00911.08096,E,2,12,1.33,149.4,M,47.1,M,,0000*41
$GNGGA,121747.00,4529.82323,N,00911.08100,E,2,12,1.33,149.7,M,47.1,M,,0000*4E
$GNGGA,121748.00,4529.82318,N,00911.08101,E,2,12,1.19,149.9,M,47.1,M,,0000*4E
$GNGGA,121749.00,4529.82312,N,00911.08103,E,2,12,1.19,150.2,M,47.1,M,,0000*44
$GNGGA,121750.00,4529.82299,N,00911.08108,E,2,12,1.33,150.5,M,47.1,M,,0000*4A
$GNGGA,121751.00,4529.82287,N,00911.08112,E,2,12,1.15,150.9,M,47.1,M,,0000*47
$GNGGA,121752.00,4529.82276,N,00911.08116,E,2,12,1.15,151.2,M,47.1,M,,0000*44
$GNGGA,121753.00,4529.82265,N,00911.08120,E,2,12,1.15,151.5,M,47.1,M,,0000*45
$GNGGA,121754.00,4529.82256,N,00911.08122,E,2,12,1.15,151.8,M,47.1,M,,0000*4D
$GNGGA,121755.00,4529.82246,N,00911.08124,E,2,12,1.15,152.2,M,47.1,M,,0000*42
$GNGGA,121756.00,4529.82237,N,00911.08126,E,2,12,1.19,152.6,M,47.1,M,,0000*4D
$GNGGA,121757.00,4529.82225,N,00911.08131,E,2,12,1.15,152.9,M,47.1,M,,0000*4A
$GNGGA,121758.00,4529.82223,N,00911.08129,E,2,12,1.19,152.9,M,47.1,M,,0000*46
$GNGGA,121759.00,4529.82219,N,00911.08128,E,2,12,1.19,153.0,M,47.1,M,,0000*47
$GNGGA,121800.00,4529.82213,N,00911.08129,E,2,12,1.15,153.2,M,47.1,M,,0000*41
$GNGGA,121801.00,4529.82210,N,00911.08129,E,2,12,1.15,153.2,M,47.1,M,,0000*43
$GNGGA,121802.00,4529.82210,N,00911.08126,E,2,12,1.15,153.3,M,47.1,M,,0000*4E
$GNGGA,121803.00,4529.82208,N,00911.08126,E,2,12,1.15,153.4,M,47.1,M,,0000*41
$GNGGA,121804.00,4529.82207,N,00911.08124,E,2,12,1.15,153.4,M,47.1,M,,0000*4B
$GNGGA,121805.00,4529.82211,N,00911.08118,E,2,12,0.99,153.4,M,47.1,M,,0000*47
$GNGGA,121806.00,4529.82207,N,00911.08117,E,2,12,0.99,153.6,M,47.1,M,,0000*4E
$GNGGA,121807.00,4529.82203,N,00911.08116,E,2,12,1.15,153.7,M,47.1,M,,0000*4E
$GNGGA,121808.00,4529.82200,N,00911.08115,E,2,12,0.99,153.8,M,47.1,M,,0000*4B
$GNGGA,121809.00,4529.82198,N,00911.08115,E,2,12,1.11,153.9,M,47.1,M,,0000*48
$GNGGA,121810.00,4529.82195,N,00911.08117,E,2,12,1.11,154.0,M,47.1,M,,0000*41
$GNGGA,121811.00,4529.82186,N,00911.08121,E,2,12,1.11,154.1,M,47.1,M,,0000*46
$GNGGA,121812.00,4529.82179,N,00911.08124,E,2,12,1.11,154.2,M,47.1,M,,0000*43
$GNGGA,121813.00,4529.82177,N,00911.08126,E,2,12,1.12,154.2,M,47.1,M,,0000*4D
$GNGGA,121814.00,4529.82175,N,00911.08127,E,2,12,1.38,154.3,M,47.1,M,,0000*40
$GNGGA,121815.00,4529.82170,N,00911.08129,E,2,12,1.21,154.3,M,47.1,M,,0000*42
$GNGGA,121816.00,4529.82170,N,00911.08127,E,2,12,1.21,154.3,M,47.1,M,,0000*4F
$GNGGA,121817.00,4529.82171,N,00911.08124,E,2,12,1.21,154.3,M,47.1,M,,0000*4C
$GNGGA,121818.00,4529.82166,N,00911.08125,E,2,12,1.21,154.4,M,47.1,M,,0000*43
$GNGGA,121819.00,4529.82157,N,00911.08128,E,2,12,1.21,154.5,M,47.1,M,,0000*4C
$GNGGA,121820.00,4529.82154,N,00911.08128,E,2,12,1.21,154.6,M,47.1,M,,0000*46
$GNGGA,121821.00,4529.82154,N,00911.08125,E,2,12,1.02,154.6,M,47.1,M,,0000*4B
$GNGGA,121822.00,4529.82153,N,00911.08123,E,2,12,1.18,154.6,M,47.1,M,,0000*42
$GNGGA,121823.00,4529.82155,N,00911.08122,E,2,12,1.18,154.6,M,47.1,M,,0000*44
$GNGGA,121824.00,4529.82155,N,00911.08120,E,2,12,1.02,154.7,M,47.1,M,,0000*4B
$GNGGA,121825.00,4529.82161,N,00911.08117,E,2,12,1.02,154.6,M,47.1,M,,0000*48
$GNGGA,121826.00,4529.82166,N,00911.08116,E,2,12,1.18,154.4,M,47.1,M,,0000*44
$GNGGA,121827.00,4529.82168,N,00911.08116,E,2,12,1.02,154.3,M,47.1,M,,0000*47
$GNGGA,121828.00,4529.82172,N,00911.08116,E,2,12,1.02,154.1,M,47.1,M,,0000*41
$GNGGA,121829.00,4529.82173,N,00911.08117,E,2,12,1.18,154.0,M,47.1,M,,0000*4A
$GNGGA,121830.00,4529.82173,N,00911.08119,E,2,12,1.02,153.8,M,47.1,M,,0000*48
$GNGGA,121831.00,4529.82179,N,00911.08116,E,2,12,1.02,153.5,M,47.1,M,,0000*41
$GNGGA,121832.00,4529.82184,N,00911.08114,E,2,12,1.18,153.2,M,47.1,M,,0000*4E
$GNGGA,121833.00,4529.82185,N,00911.08115,E,2,12,1.02,152.9,M,47.1,M,,0000*4E
$GNGGA,121834.00,4529.82190,N,00911.08113,E,2,12,1.02,152.6,M,47.1,M,,0000*44
$GNGGA,121835.00,4529.82189,N,00911.08114,E,2,12,1.18,152.4,M,47.1,M,,0000*43
$GNGGA,121836.00,4529.82199,N,00911.08108,E,2,12,1.02,152.1,M,47.1,M,,0000*42
$GNGGA,121837.00,4529.82209,N,00911.08101,E,2,12,1.02,151.8,M,47.1,M,,0000*4A
$GNGGA,121838.00,4529.82220,N,00911.08094,E,2,12,1.18,151.5,M,47.1,M,,0000*45
$GNGGA,121839.00,4529.82230,N,00911.08087,E,2,12,1.02,151.2,M,47.1,M,,0000*4B
$GNGGA,121840.00,4529.82240,N,00911.08079,E,2,12,1.02,151.0,M,47.1,M,,0000*41
$GNGGA,121841.00,4529.82248,N,00911.08073,E,2,12,1.56,150.9,M,47.1,M,,0000*4B
$GNGGA,121842.00,4529.82254,N,00911.08070,E,2,12,0.98,150.7,M,47.1,M,,0000*4B
$GNGGA,121843.00,4529.82262,N,00911.08066,E,2,12,0.99,150.5,M,47.1,M,,0000*4B
$GNGGA,121844.00,4529.82270,N,00911.08062,E,2,12,1.25,150.3,M,47.1,M,,0000*4B
$GNGGA,121845.00,4529.82279,N,00911.08057,E,2,12,0.99,150.1,M,47.1,M,,0000*41
$GNGGA,121846.00,4529.82282,N,00911.08059,E,2,12,0.98,149.9,M,47.1,M,,0000*49
$GNGGA,121847.00,4529.82284,N,00911.08060,E,2,12,1.02,149.8,M,47.1,M,,0000*47
$GNGGA,121848.00,4529.82290,N,00911.08059,E,2,12,0.98,149.6,M,47.1,M,,0000*4B
$GNGGA,121849.00,4529.82294,N,00911.08059,E,2,12,0.99,149.4,M,47.1,M,,0000*4D
$GNGGA,121850.00,4529.82292,N,00911.08064,E,2,12,1.03,149.4,M,47.1,M,,0000*4F
$GNGGA,121851.00,4529.82297,N,00911.08064,E,2,12,0.99,149.2,M,47.1,M,,0000*4F
$GNGGA,121852.00,4529.82298,N,00911.08065,E,2,12,0.99,149.1,M,47.1,M,,0000*41
$GNGGA,121853.00,4529.82297,N,00911.08068,E,2,12,1.25,149.1,M,47.1,M,,0000*44
$GNGGA,121854.00,4529.82302,N,00911.08068,E,2,12,1.19,148.9,M,47.1,M,,0000*48
$GNGGA,121855.00,4529.82303,N,00911.08070,E,2,12,1.17,148.8,M,47.1,M,,0000*4E
$GNGGA,121856.00,4529.82304,N,00911.08073,E,2,12,1.25,148.7,M,47.1,M,,0000*47
$GNGGA,121857.00,4529.82303,N,00911.08077,E,2,12,1.17,148.6,M,47.1,M,,0000*45
$GNGGA,121858.00,4529.82306,N,00911.08080,E,2,12,1.17,148.5,M,47.1,M,,0000*44
$GNGGA,121859.00,4529.82308,N,00911.08083,E,2,12,1.21,148.4,M,47.1,M,,0000*4C
$GNGGA,121900.00,4529.82305,N,00911.08089,E,2,12,1.37,148.3,M,47.1,M,,0000*46
$GNGGA,121901.00,4529.82301,N,00911.08097,E,2,12,1.17,148.2,M,47.1,M,,0000*4F
$GNGGA,121902.00,4529.82300,N,00911.08102,E,2,12,1.21,148.2,M,47.1,M,,0000*45
$GNGGA,121903.00,4529.82300,N,00911.08106,E,2,12,1.17,148.1,M,47.1,M,,0000*46
$GNGGA,121904.00,4529.82300,N,00911.08110,E,2,12,1.17,148.0,M,47.1,M,,0000*47
$GNGGA,121905.00,4529.82302,N,00911.08112,E,2,12,1.54,147.9,M,47.1,M,,0000*47
$GNGGA,121906.00,4529.82305,N,00911.08113,E,2,12,1.21,147.7,M,47.1,M,,0000*4E
$GNGGA,121907.00,4529.82307,N,00911.08116,E,2,11,1.54,147.6,M,47.1,M,,0000*48
$GNGGA,121908.00,4529.82306,N,00911.08119,E,2,12,1.21,147.5,M,47.1,M,,0000*4B
$GNGGA,121909.00,4529.82304,N,00911.08124,E,2,12,1.21,147.5,M,47.1,M,,0000*46
$GNGGA,121910.00,4529.82304,N,00911.08127,E,2,12,1.21,147.4,M,47.1,M,,0000*4C
$GNGGA,121911.00,4529.82301,N,00911.08132,E,2,12,1.21,147.4,M,47.1,M,,0000*4C
$GNGGA,121912.00,4529.82299,N,00911.08136,E,2,12,1.17,147.4,M,47.1,M,,0000*4E
$GNGGA,121913.00,4529.82304,N,00911.08138,E,2,12,1.17,147.3,M,47.1,M,,0000*43
$GNGGA,121914.00,4529.82301,N,00911.08142,E,2,12,1.18,147.5,M,47.1,M,,0000*45
$GNGGA,121915.00,4529.82299,N,00911.08145,E,2,12,1.19,147.6,M,47.1,M,,0000*41
$GNGGA,121916.00,4529.82295,N,00911.08149,E,2,12,1.19,147.9,M,47.1,M,,0000*4D
$GNGGA,121917.00,4529.82285,N,00911.08158,E,2,12,0.99,148.2,M,47.1,M,,0000*40
$GNGGA,121918.00,4529.82271,N,00911.08169,E,2,12,0.98,148.5,M,47.1,M,,0000*40
$GNGGA,121919.00,4529.82262,N,00911.08178,E,2,12,0.98,148.7,M,47.1,M,,0000*41
$GNGGA,121920.00,4529.82253,N,00911.08186,E,2,12,0.98,149.0,M,47.1,M,,0000*4E
$GNGGA,121921.00,4529.82243,N,00911.08194,E,2,12,0.98,149.3,M,47.1,M,,0000*4E
$GNGGA,121922.00,4529.82234,N,00911.08202,E,2,12,0.98,149.5,M,47.1,M,,0000*47
$GNGGA,121923.00,4529.82226,N,00911.08210,E,2,12,0.98,149.7,M,47.1,M,,0000*44
$GNGGA,121924.00,4529.82219,N,00911.08216,E,2,12,0.98,150.0,M,47.1,M,,0000*46
$GNGGA,121925.00,4529.82207,N,00911.08223,E,2,12,0.98,150.4,M,47.1,M,,0000*4A
$GNGGA,121926.00,4529.82198,N,00911.08230,E,2,12,0.98,150.7,M,47.1,M,,0000*4D
$GNGGA,121927.00,4529.82185,N,00911.08238,E,2,12,0.98,151.1,M,47.1,M,,0000*4F
$GNGGA,121928.00,4529.82175,N,00911.08247,E,2,12,0.98,151.4,M,47.1,M,,0000*42
$GNGGA,121929.00,4529.82168,N,00911.08252,E,2,12,0.98,151.7,M,47.1,M,,0000*48
$GNGGA,121930.00,4529.82163,N,00911.08256,E,2,12,0.98,151.9,M,47.1,M,,0000*41
$GNGGA,121931.00,4529.82158,N,00911.08259,E,2,12,0.98,152.0,M,47.1,M,,0000*4D
$GNGGA,121932.00,4529.82150,N,00911.08263,E,2,12,0.98,152.2,M,47.1,M,,0000*4D
$GNGGA,121933.00,4529.82140,N,00911.08269,E,2,12,0.98,152.4,M,47.1,M,,0000*41
$GNGGA,121934.00,4529.82138,N,00911.08273,E,2,12,0.98,152.4,M,47.1,M,,0000*42
$GNGGA,121935.00,4529.82129,N,00911.08281,E,2,12,0.98,152.6,M,47.1,M,,0000*4C
$GNGGA,121936.00,4529.82122,N,00911.08288,E,2,12,0.98,152.7,M,47.1,M,,0000*4C
$GNGGA,121937.00,4529.82116,N,00911.08291,E,2,12,1.11,152.8,M,47.1,M,,0000*4D
$GNGGA,121938.00,4529.82114,N,00911.08294,E,2,12,1.01,152.8,M,47.1,M,,0000*44
$GNGGA,121939.00,4529.82112,N,00911.08296,E,2,12,1.01,152.9,M,47.1,M,,0000*40
$GNGGA,121940.00,4529.82107,N,00911.08301,E,2,12,1.21,153.0,M,47.1,M,,0000*4F
$GNGGA,121941.00,4529.82101,N,00911.08305,E,2,12,1.01,153.0,M,47.1,M,,0000*4E
$GNGGA,121942.00,4529.82096,N,00911.08308,E,2,12,1.01,153.1,M,47.1,M,,0000*4E
$GNGGA,121943.00,4529.82089,N,00911.08309,E,2,12,1.21,153.2,M,47.1,M,,0000*41
$GNGGA,121944.00,4529.82079,N,00911.08315,E,2,12,1.01,153.4,M,47.1,M,,0000*40
$GNGGA,121945.00,4529.82073,N,00911.08319,E,2,12,1.01,153.4,M,47.1,M,,0000*47
$GNGGA,121946.00,4529.82064,N,00911.08323,E,2,12,1.01,153.5,M,47.1,M,,0000*4A
$GNGGA,121947.00,4529.82054,N,00911.08326,E,2,12,1.01,153.6,M,47.1,M,,0000*4E
$GNGGA,121948.00,4529.82044,N,00911.08330,E,2,12,0.98,153.8,M,47.1,M,,0000*48
$GNGGA,121949.00,4529.82033,N,00911.08335,E,2,12,0.99,153.9,M,47.1,M,,0000*4C
$GNGGA,121950.00,4529.82028,N,00911.08337,E,2,12,0.98,153.9,M,47.1,M,,0000*4D
$GNGGA,121951.00,4529.82024,N,00911.08338,E,2,12,0.98,153.9,M,47.1,M,,0000*4F
$GNGGA,121952.00,4529.82018,N,00911.08341,E,2,12,0.99,154.0,M,47.1,M,,0000*42
$GNGGA,121953.00,4529.82013,N,00911.08342,E,2,12,0.98,154.1,M,47.1,M,,0000*4B
$GNGGA,121954.00,4529.82013,N,00911.08340,E,2,12,0.98,154.1,M,47.1,M,,0000*4E
$GNGGA,121955.00,4529.82013,N,00911.08338,E,2,12,0.99,154.2,M,47.1,M,,0000*42
$GNGGA,121956.00,4529.82009,N,00911.08339,E,2,12,0.98,154.3,M,47.1,M,,0000*4B
$GNGGA,121957.00,4529.82003,N,00911.08340,E,2,12,0.98,154.4,M,47.1,M,,0000*49
$GNGGA,121958.00,4529.82000,N,00911.08340,E,2,11,0.99,154.5,M,47.1,M,,0000*46
$GNGGA,121959.00,4529.81998,N,00911.08339,E,2,12,0.98,154.6,M,47.1,M,,0000*43
$GNGGA,122000.00,4529.81999,N,00911.08336,E,2,12,0.98,154.6,M,47.1,M,,0000*4B
$GNGGA,122001.00,4529.81997,N,00911.08335,E,2,12,0.99,154.8,M,47.1,M,,0000*48
$GNGGA,122002.00,4529.81996,N,00911.08331,E,2,12,0.98,154.9,M,47.1,M,,0000*4E
$GNGGA,122003.00,4529.81996,N,00911.08326,E,2,12,0.98,155.0,M,47.1,M,,0000*41
$GNGGA,122004.00,4529.81993,N,00911.08320,E,2,12,0.99,155.3,M,47.1,M,,0000*47
$GNGGA,122005.00,4529.81986,N,00911.08319,E,2,12,0.98,155.7,M,47.1,M,,0000*4D
$GNGGA,122006.00,4529.81985,N,00911.08314,E,2,12,0.98,155.9,M,47.1,M,,0000*4E
$GNGGA,122007.00,4529.81984,N,00911.08310,E,2,12,0.99,156.0,M,47.1,M,,0000*41
$GNGGA,122008.00,4529.81985,N,00911.08307,E,2,11,0.99,155.9,M,47.1,M,,0000*40
$GNGGA,122009.00,4529.81987,N,00911.08306,E,2,12,0.98,155.9,M,47.1,M,,0000*40
$GNGGA,122010.00,4529.81986,N,00911.08302,E,2,12,0.99,155.9,M,47.1,M,,0000*4C
$GNGGA,122011.00,4529.81985,N,00911.08297,E,2,12,0.99,155.9,M,47.1,M,,0000*43
$GNGGA,122012.00,4529.81985,N,00911.08292,E,2,12,0.99,155.9,M,47.1,M,,0000*45
$GNGGA,122013.00,4529.81985,N,00911.08287,E,2,12,0.98,155.8,M,47.1,M,,0000*40
$GNGGA,122014.00,4529.81980,N,00911.08287,E,2,12,0.98,155.8,M,47.1,M,,0000*42
$GNGGA,122015.00,4529.81977,N,00911.08282,E,2,12,0.99,155.7,M,47.1,M,,0000*40
$GNGGA,122016.00,4529.81973,N,00911.08283,E,2,12,1.00,155.5,M,47.1,M,,0000*45
$GNGGA,122017.00,4529.81973,N,00911.08283,E,2,12,0.98,155.4,M,47.1,M,,0000*45
$GNGGA,122018.00,4529.81974,N,00911.08280,E,2,12,0.98,155.2,M,47.1,M,,0000*48
$GNGGA,122019.00,4529.81974,N,00911.08275,E,2,12,0.86,155.1,M,47.1,M,,0000*4F
$GNGGA,122020.00,4529.81976,N,00911.08269,E,2,12,0.86,154.9,M,47.1,M,,0000*43
$GNGGA,122021.00,4529.81975,N,00911.08266,E,2,12,0.84,154.8,M,47.1,M,,0000*4D
$GNGGA,122022.00,4529.81977,N,00911.08265,E,2,12,0.86,154.7,M,47.1,M,,0000*42
$GNGGA,122023.00,4529.81981,N,00911.08261,E,2,12,0.84,154.6,M,47.1,M,,0000*4D
$GNGGA,122024.00,4529.81982,N,00911.08259,E,2,12,0.84,154.6,M,47.1,M,,0000*42
$GNGGA,122025.00,4529.81988,N,00911.08254,E,2,12,0.86,154.4,M,47.1,M,,0000*44
$GNGGA,122026.00,4529.81990,N,00911.08252,E,2,12,0.84,154.3,M,47.1,M,,0000*4D
$GNGGA,122027.00,4529.81992,N,00911.08251,E,2,12,0.84,154.2,M,47.1,M,,0000*4C
$GNGGA,122028.00,4529.81996,N,00911.08248,E,2,12,0.84,154.1,M,47.1,M,,0000*4C
$GNGGA,122029.00,4529.82000,N,00911.08246,E,2,12,0.84,154.0,M,47.1,M,,0000*47
$GNGGA,122030.00,4529.82003,N,00911.08245,E,2,12,0.84,153.9,M,47.1,M,,0000*41
$GNGGA,122031.00,4529.82009,N,00911.08242,E,2,12,0.84,153.8,M,47.1,M,,0000*4C
$GNGGA,122032.00,4529.82015,N,00911.08239,E,2,12,0.84,153.6,M,47.1,M,,0000*40
$GNGGA,122033.00,4529.82017,N,00911.08239,E,2,12,0.84,153.6,M,47.1,M,,0000*43
$GNGGA,122034.00,4529.82022,N,00911.08237,E,2,12,0.84,153.5,M,47.1,M,,0000*4F
$GNGGA,122035.00,4529.82018,N,00911.08241,E,2,12,0.88,153.5,M,47.1,M,,0000*4A
$GNGGA,122036.00,4529.82011,N,00911.08245,E,2,12,0.88,153.5,M,47.1,M,,0000*44
$GNGGA,122037.00,4529.82016,N,00911.08241,E,2,12,0.84,153.3,M,47.1,M,,0000*4C
$GNGGA,122038.00,4529.82019,N,00911.08239,E,2,12,0.84,153.1,M,47.1,M,,0000*41
$GNGGA,122039.00,4529.82019,N,00911.08240,E,2,12,0.84,153.0,M,47.1,M,,0000*4F
$GNGGA,122040.00,4529.82022,N,00911.08241,E,2,12,0.84,152.9,M,47.1,M,,0000*40
$GNGGA,122041.00,4529.82023,N,00911.08244,E,2,12,0.83,152.8,M,47.1,M,,0000*43
$GNGGA,122042.00,4529.82031,N,00911.08242,E,2,12,0.83,152.6,M,47.1,M,,0000*4B
$GNGGA,122043.00,4529.82032,N,00911.08241,E,2,12,0.84,152.5,M,47.1,M,,0000*4E
$GNGGA,122044.00,4529.82031,N,00911.08242,E,2,12,0.87,152.4,M,47.1,M,,0000*4B
$GNGGA,122045.00,4529.82031,N,00911.08243,E,2,12,0.83,152.2,M,47.1,M,,0000*49
$GNGGA,122046.00,4529.82030,N,00911.08243,E,2,12,0.83,152.1,M,47.1,M,,0000*48
$GNGGA,122047.00,4529.82030,N,00911.08243,E,2,12,0.83,152.0,M,47.1,M,,0000*48
$GNGGA,122048.00,4529.82033,N,00911.08241,E,2,12,0.83,151.9,M,47.1,M,,0000*4C
$GNGGA,122049.00,4529.82032,N,00911.08243,E,2,12,0.83,151.8,M,47.1,M,,0000*4F
$GNGGA,122050.00,4529.82034,N,00911.08239,E,2,12,0.84,151.7,M,47.1,M,,0000*44
$GNGGA,122051.00,4529.82033,N,00911.08236,E,2,12,0.83,151.6,M,47.1,M,,0000*4B
$GNGGA,122052.00,4529.82034,N,00911.08232,E,2,12,0.84,151.6,M,47.1,M,,0000*4C
$GNGGA,122053.00,4529.82036,N,00911.08227,E,2,12,0.83,151.6,M,47.1,M,,0000*4C
$GNGGA,122054.00,4529.82033,N,00911.08227,E,2,12,0.83,151.7,M,47.1,M,,0000*4F
$GNGGA,122055.00,4529.82032,N,00911.08227,E,2,12,0.83,151.8,M,47.1,M,,0000*40
$GNGGA,122056.00,4529.82028,N,00911.08232,E,2,12,0.83,151.9,M,47.1,M,,0000*4D
$GNGGA,122057.00,4529.82024,N,00911.08236,E,2,12,0.83,151.9,M,47.1,M,,0000*44
$GNGGA,122058.00,4529.82024,N,00911.08236,E,2,12,0.84,152.0,M,47.1,M,,0000*46
$GNGGA,122059.00,4529.82025,N,00911.08236,E,2,12,0.94,152.0,M,47.1,M,,0000*47
$GNGGA,122100.00,4529.82025,N,00911.08239,E,2,12,0.94,152.0,M,47.1,M,,0000*45
$GNGGA,122101.00,4529.82024,N,00911.08240,E,2,12,1.00,152.0,M,47.1,M,,0000*47
$GNGGA,122102.00,4529.82027,N,00911.08239,E,2,12,0.95,152.0,M,47.1,M,,0000*44
$GNGGA,122103.00,4529.82026,N,00911.08241,E,2,12,0.94,152.0,M,47.1,M,,0000*4A
$GNGGA,122104.00,4529.82024,N,00911.08246,E,2,12,0.94,152.0,M,47.1,M,,0000*48
$GNGGA,122105.00,4529.82022,N,00911.08252,E,2,12,0.94,152.0,M,47.1,M,,0000*4A
$GNGGA,122106.00,4529.82019,N,00911.08255,E,2,12,0.96,152.1,M,47.1,M,,0000*45
$GNGGA,122107.00,4529.82017,N,00911.08258,E,2,12,0.94,152.1,M,47.1,M,,0000*45
$GNGGA,122108.00,4529.82031,N,00911.08248,E,2,12,0.94,152.1,M,47.1,M,,0000*4F
$GNGGA,122109.00,4529.82042,N,00911.08242,E,2,12,0.98,152.1,M,47.1,M,,0000*4C
$GNGGA,122110.00,4529.82049,N,00911.08236,E,2,12,0.98,152.0,M,47.1,M,,0000*4D
$GNGGA,122111.00,4529.82056,N,00911.08231,E,2,12,0.98,152.0,M,47.1,M,,0000*45
$GNGGA,122112.00,4529.82061,N,00911.08226,E,2,12,0.98,152.1,M,47.1,M,,0000*45
$GNGGA,122113.00,4529.82069,N,00911.08224,E,2,12,0.98,152.1,M,47.1,M,,0000*4E
$GNGGA,122114.00,4529.82065,N,00911.08229,E,2,12,0.98,152.3,M,47.1,M,,0000*4A
$GNGGA,122115.00,4529.82060,N,00911.08233,E,2,12,0.99,152.4,M,47.1,M,,0000*43
$GNGGA,122116.00,4529.82058,N,00911.08234,E,2,12,0.99,152.5,M,47.1,M,,0000*4D
$GNGGA,122117.00,4529.82059,N,00911.08237,E,2,12,0.99,152.6,M,47.1,M,,0000*4D
$GNGGA,122118.00,4529.82061,N,00911.08239,E,2,12,1.02,152.6,M,47.1,M,,0000*44
$GNGGA,122119.00,4529.82062,N,00911.08242,E,2,12,0.99,152.6,M,47.1,M,,0000*49
$GNGGA,122120.00,4529.82068,N,00911.08240,E,2,12,0.99,152.6,M,47.1,M,,0000*4B
$GNGGA,122121.00,4529.82077,N,00911.08235,E,2,12,0.99,152.6,M,47.1,M,,0000*46
$GNGGA,122122.00,4529.82085,N,00911.08233,E,2,12,0.98,152.6,M,47.1,M,,0000*4F
$GNGGA,122123.00,4529.82090,N,00911.08234,E,2,12,0.98,152.6,M,47.1,M,,0000*4D
$GNGGA,122124.00,4529.82089,N,00911.08234,E,2,12,0.98,152.7,M,47.1,M,,0000*43
$GNGGA,122125.00,4529.82089,N,00911.08235,E,2,12,0.98,152.8,M,47.1,M,,0000*4C
$GNGGA,122126.00,4529.82090,N,00911.08234,E,2,12,0.98,152.8,M,47.1,M,,0000*46
$GNGGA,122127.00,4529.82094,N,00911.08231,E,2,12,0.98,152.8,M,47.1,M,,0000*46
$GNGGA,122128.00,4529.82091,N,00911.08236,E,2,12,0.98,152.9,M,47.1,M,,0000*4A
$GNGGA,122129.00,4529.82094,N,00911.08235,E,2,12,0.98,153.0,M,47.1,M,,0000*45
$GNGGA,122130.00,4529.82107,N,00911.08223,E,2,12,0.84,152.9,M,47.1,M,,0000*44
$GNGGA,122131.00,4529.82116,N,00911.08216,E,2,12,0.83,152.9,M,47.1,M,,0000*44
$GNGGA,122132.00,4529.82123,N,00911.08211,E,2,12,0.85,152.9,M,47.1,M,,0000*40
$GNGGA,122133.00,4529.82122,N,00911.08213,E,2,12,0.85,153.0,M,47.1,M,,0000*4A
$GNGGA,122134.00,4529.82124,N,00911.08209,E,2,12,0.99,153.0,M,47.1,M,,0000*4D
$GNGGA,122135.00,4529.82120,N,00911.08210,E,2,12,0.99,153.1,M,47.1,M,,0000*41
$GNGGA,122136.00,4529.82128,N,00911.08200,E,2,12,0.99,153.0,M,47.1,M,,0000*4A
$GNGGA,122137.00,4529.82130,N,00911.08196,E,2,12,0.99,152.9,M,47.1,M,,0000*46
$GNGGA,122138.00,4529.82129,N,00911.08196,E,2,12,0.99,152.9,M,47.1,M,,0000*41
$GNGGA,122139.00,4529.82128,N,00911.08198,E,2,12,0.98,152.9,M,47.1,M,,0000*4E
$GNGGA,122140.00,4529.82149,N,00911.08188,E,2,12,0.98,152.5,M,47.1,M,,0000*4A
$GNGGA,122141.00,4529.82153,N,00911.08187,E,2,12,0.83,152.4,M,47.1,M,,0000*44
$GNGGA,122142.00,4529.82155,N,00911.08188,E,2,12,0.83,152.3,M,47.1,M,,0000*49
$GNGGA,122143.00,4529.82158,N,00911.08188,E,2,12,0.97,152.2,M,47.1,M,,0000*41
$GNGGA,122144.00,4529.82154,N,00911.08190,E,2,12,1.14,152.2,M,47.1,M,,0000*49
$GNGGA,122145.00,4529.82151,N,00911.08191,E,2,12,0.98,152.2,M,47.1,M,,0000*49
$GNGGA,122146.00,4529.82149,N,00911.08191,E,2,12,0.98,152.2,M,47.1,M,,0000*43
$GNGGA,122147.00,4529.82145,N,00911.08193,E,2,12,0.98,152.3,M,47.1,M,,0000*4D
$GNGGA,122148.00,4529.82144,N,00911.08193,E,2,12,1.01,152.3,M,47.1,M,,0000*42
$GNGGA,122149.00,4529.82161,N,00911.08177,E,2,12,1.14,152.1,M,47.1,M,,0000*48
$GNGGA,122150.00,4529.82170,N,00911.08171,E,2,12,0.98,152.0,M,47.1,M,,0000*42
$GNGGA,122151.00,4529.82176,N,00911.08169,E,2,12,0.98,151.9,M,47.1,M,,0000*46
$GNGGA,122152.00,4529.82174,N,00911.08166,E,2,12,0.98,152.0,M,47.1,M,,0000*42
$GNGGA,122153.00,4529.82173,N,00911.08161,E,2,12,0.98,152.1,M,47.1,M,,0000*42
$GNGGA,122154.00,4529.82177,N,00911.08152,E,2,12,0.99,152.0,M,47.1,M,,0000*41
$GNGGA,122155.00,4529.82180,N,00911.08146,E,2,12,0.98,151.9,M,47.1,M,,0000*46
